,school_number,school_type,name,short_name,address,zipcode,location,student,tel,email,is_big,community,is_rural,coordinates,latitude,longitude
0,100000,Weiterbildungskolleg,Studienkolleg des Ökumenischen,"Bochum, WBK KOL Studienkolleg",Girondelle 80,44799,Bochum,0,2349388231.0,100000@schule.nrw.de,0,"Bochum, Stadt",0,"(51.454125418916135, 7.234122444196718)",51.454125418916135,7.234122444196718
1,100010,Gymnasium,Gymnasium Claudia Agrippina Privat,"Köln, Gym Gymnasium Claudia Agrippina",Stolberger Str. 112,50933,Köln,98,22137996433.0,100010@schule.nrw.de,0,"Köln, Stadt",0,"(50.94161647765391, 6.881410448090622)",50.94161647765391,6.881410448090622
2,100011,Gesamtschule,Städt. Gesamtschule,"Haan, GE Walder Straße",Walder Str. 15,42781,Haan,531,21293754950.0,100011@schule.nrw.de,1,Mettmann,1,"(51.208013199999996, 7.01574931157376)",51.208013199999996,7.01574931157376
3,100012,Grundschule,Städt. Gemeinschaftsgrundschule,"Leverkusen, GG Am Friedenspark",Netzestr. 12,51371,Leverkusen,355,214310830.0,100012@schule.nrw.de,0,"Leverkusen, Stadt",0,"(51.05702510942749, 6.946612662697298)",51.05702510942749,6.946612662697298
4,100014,Grundschule,Kolibri-Schule,"Herne, GG Kolibri-Schule",Jean-Vogel-Str. 36,44625,Herne,436,2323163970.0,100014@schule.nrw.de,0,"Herne, Stadt",0,"(51.52862893905526, 7.211516297688583)",51.52862893905526,7.211516297688583
5,100015,Gymnasium,Städt. Wim-Wenders-Gymnasium,"Düsseldorf, Gym Wim-Wenders",Schmiedestr. 17,40227,Düsseldorf,436,2118924260.0,100015@schule.nrw.de,0,"Düsseldorf, Stadt",0,"(51.21287929049312, 6.802537956792132)",51.21287929049312,6.802537956792132
6,100016,Gesamtschule,Kupferstädter Gesamtschule,"Stolberg, GE Kupferstädter",Breslauer Str. 1,52222,Stolberg (Rhld.),719,24029975610.0,100016@schule.nrw.de,1,Städteregion Aachen,0,"(50.78429355, 6.21395644091691)",50.78429355,6.21395644091691
7,100017,Grundschule,Städt. Gem. Grundschule,"Hürth, GG Bonnstraße",Bonnstr. 109,50354,Hürth,181,2233974420.0,100017@schule.nrw.de,0,Rhein-Erft-Kreis,1,"(50.8742561, 6.849756714080373)",50.8742561,6.849756714080373
8,100018,Waldorfschule,Freie Waldorfschule Rudolf Steiner Schu-,"Essen, FW Schellstraße",Schellstr. 47,45134,Essen,624,201435150.0,100018@schule.nrw.de,1,"Essen, Stadt",0,"(51.4226138239324, 7.037207165568742)",51.4226138239324,7.037207165568742
9,100019,Gesamtschule,Joseph Beuys Gesamtschule,"Kleve, GE Joseph Beuys",Hoffmannallee 15,47533,Kleve,892,282175040.0,100019@schule.nrw.de,1,Kleve,1,"(51.786289796412106, 6.128205392097223)",51.786289796412106,6.128205392097223
10,100020,Grundschule,Städt. Kath. Grundschule,"Düsseldorf, KG Kartause-Hain-Schule",Unterrather Str. 76,40468,Düsseldorf,180,2114791163.0,100020@schule.nrw.de,0,"Düsseldorf, Stadt",0,"(51.267306700685225, 6.775226879636692)",51.267306700685225,6.775226879636692
11,100021,Gesamtschule,Rupert-Neudeck-Gesamtschule der Stadt,"Tönisvorst, GE Rupert-Neudeck",Corneliusstr. 25,47918,Tönisvorst,791,2151792650.0,100021@schule.nrw.de,1,Viersen,1,"(51.31333895, 6.459069048563377)",51.31333895,6.459069048563377
12,100022,Gemeinschaftsschule (Schulversuch),Sekundarschule Medebach-Winterberg,"Medebach, SK Medebach-Winterberg",Schützenstr. 12,59964,Medebach,714,2982922930.0,100022@schule.nrw.de,1,Hochsauerlandkreis,1,"(51.204646049999994, 8.680693894352094)",51.204646049999994,8.680693894352094
13,100023,Gesamtschule,Gesamtschule Lengerich/Tecklenburg,"Lengerich, GE Lengerich/Tecklenburg",Margarethenstr. 1,49525,Lengerich,695,5481338510.0,100023@schule.nrw.de,1,Steinfurt,1,"(52.16615925, 7.837779570123027)",52.16615925,7.837779570123027
14,100024,Gesamtschule,Euregioschule Gesamtschule der Stadt,"Gronau, GE Euregioschule",Gildehauser Damm 49,48599,Gronau (Westf.),692,25654019761.0,100024@schule.nrw.de,1,Borken,1,"(52.18899725, 7.028777202256272)",52.18899725,7.028777202256272
15,100025,Gesamtschule,Montessori Gesamtschule Sendenhorst,"Sendenhorst, GE Teigelkamp",Teigelkamp 5,48324,Sendenhorst,194,2526937407.0,100025@schule.nrw.de,0,Warendorf,1,"(51.854592749999995, 7.785950338537939)",51.854592749999995,7.785950338537939
16,100026,Grundschule,Schule unter der Iburg,"Bad Driburg, GG Schule unter der Iburg",Jahnstr. 12,33014,Bad Driburg,524,52533894.0,100026@schule.nrw.de,1,Höxter,1,"(51.735102850000004, 9.035998472319717)",51.735102850000004,9.035998472319717
17,100027,Förderschule,Kompass-SchuleSchulischer Lernort,"Münster, FÖ SL Kompass-Schule",Bröderichweg 36,48159,Münster,0,251390030.0,100027@schule.nrw.de,0,"Münster, Stadt",0,"(52.0012776476092, 7.6047190688175235)",52.0012776476092,7.6047190688175235
18,100028,Realschule,Realschule im Bezirk Zollverein,"Essen, RS im Bezirk Zollverein",Gelsenkirchener Str. 138 a,45309,Essen,429,2018561430.0,100028@schule.nrw.de,0,"Essen, Stadt",0,"(51.47942688336846, 7.066674211743588)",51.47942688336846,7.066674211743588
19,100029,Grundschule,Schule an der Oranienstraße,"Oberhausen,GG Schule a. d. Oranienstraße",Oranienstr. 57,46147,Oberhausen,275,20830977970.0,100029@schule.nrw.de,0,"Oberhausen, Stadt",0,"(51.54279853610316, 6.814517465749693)",51.54279853610316,6.814517465749693
20,100030,Waldorfschule,Freie Waldorfschule Rheine,"Rheine, FW Meisenstr.",Meisenstr. 30,48429,Rheine,103,59719808310.0,100030@schule.nrw.de,0,Steinfurt,1,"(52.28711355, 7.4589653996484895)",52.28711355,7.4589653996484895
21,100032,Grundschule,GGS Regenbogenschule,"Brühl, GG (Verb.) Regenbogenschule",Kaiserstr. 158,50321,Brühl,255,2232503030.0,100032@schule.nrw.de,0,Rhein-Erft-Kreis,1,"(50.81810745, 6.889559723421364)",50.81810745,6.889559723421364
22,100033,Realschule,"Bischöfliche Clara-Fey-Schule,Realschule","Schleiden, RS Clara-Fey-Schule",Malmedyer Str. 2,53937,Schleiden,233,24457012.0,100033@schule.nrw.de,0,Euskirchen,1,"(50.5588667, 6.446380253025292)",50.5588667,6.446380253025292
23,100034,Gesamtschule,Das Forscherhaus Gesamtschule,"Bünde, GE Das Forscherhaus",Heidestr. 41,32257,Bünde,154,52234870024.0,100034@schule.nrw.de,0,Herford,1,"(52.20006239649235, 8.573690484902087)",52.20006239649235,8.573690484902087
24,100035,Berufskolleg,August-Hermann-Francke-Berufskolleg,"Detmold, BK August-Hermann-Francke",Georgstr. 24,32756,Detmold,123,5231921680.0,100035@schule.nrw.de,0,Lippe,1,"(51.938132851366994, 8.871968796865483)",51.938132851366994,8.871968796865483
25,100036,Gesamtschule,Gesamtschule Helios,"Köln, GE Gesamtschule Helios",Borsigstr. 13,50825,Köln,328,221500558512.0,100036@schule.nrw.de,0,"Köln, Stadt",0,"(50.9568900688137, 6.914276155521166)",50.9568900688137,6.914276155521166
26,100037,Berufskolleg,Matthias-Claudius-Schule Bochum,"Bochum, BK Matthias-Claudius-Schule",Weitmarer Str. 115b,44795,Bochum,35,234943650.0,100037@schule.nrw.de,0,"Bochum, Stadt",0,"(51.45090312411993, 7.1989753230382805)",51.45090312411993,7.1989753230382805
27,100038,Grundschule,Grundschule Wefelshohl,"Lüdenscheid, GG Wefelshohl",Gustavstr. 35,58511,Lüdenscheid,173,23519475190.0,100038@schule.nrw.de,0,Märkischer Kreis,1,"(51.2135913, 7.631060632465278)",51.2135913,7.631060632465278
28,100039,Grundschule,Grundschule St. Albert als private,"Ruppichteroth, WG St. Albert",Zum Brölbach 2,53809,Ruppichteroth,29,22959089890.0,100039@schule.nrw.de,0,Rhein-Sieg-Kreis,1,"(50.84322047297857, 7.460363587709823)",50.84322047297857,7.460363587709823
29,100040,Gymnasium,Gymnasium Neue Sandkaul,"Köln, Gym Neue Sandkaul",Neue Sandkaul 29,50859,Köln,274,22122135320.0,100040@schule.nrw.de,0,"Köln, Stadt",0,"(50.95439707154261, 6.831072619765721)",50.95439707154261,6.831072619765721
30,100041,Gesamtschule,Gesamtschule Wasseramselweg,"Köln, GE Wasseramselweg",Am Wassermann 40,50829,Köln,486,22122135380.0,100041@schule.nrw.de,1,"Köln, Stadt",0,"(50.96809098846163, 6.875876386068133)",50.96809098846163,6.875876386068133
31,100042,Gesamtschule,Gesamtschule der Stadt Geldern,"Geldern, GE Königsberger Straße",Königsberger Str. 60,47608,Geldern,428,283197796311.0,100042@schule.nrw.de,0,Kleve,1,"(51.51750822738094, 6.313171764663003)",51.51750822738094,6.313171764663003
32,100044,Gesamtschule,3. Gesamtschule,"Gütersloh, GE 3. Gesamtschule",Ahornallee 46,33330,Gütersloh,311,524150528210.0,100044@schule.nrw.de,0,Gütersloh,1,"(51.91674085, 8.376199368437346)",51.91674085,8.376199368437346
33,100045,Realschule,Realschule am Schlehenweg,"Bielefeld, RS am Schlehenweg",Schlehenweg 24,33609,Bielefeld,165,521518480.0,100045@schule.nrw.de,0,"Bielefeld, Stadt",0,"(52.04061181333533, 8.574997898557854)",52.04061181333533,8.574997898557854
34,100046,Gemeinschaftsschule (Schulversuch),Sekundarschule Königsbrügge,"Bielefeld, SK Königsbrügge",Fritz-Reuter-Str. 30,33604,Bielefeld,221,521515970.0,100046@schule.nrw.de,0,"Bielefeld, Stadt",0,"(52.01005269543386, 8.549753924489758)",52.01005269543386,8.549753924489758
35,100047,Gemeinschaftsschule (Schulversuch),Sekundarschule Gellershagen,"Bielefeld, SK Gellershagen",Am Brodhagen 50,33613,Bielefeld,225,521515723.0,100047@schule.nrw.de,0,"Bielefeld, Stadt",0,"(52.04629244829058, 8.520554854282521)",52.04629244829058,8.520554854282521
36,100048,Gesamtschule,Gesamtschule Bochum-Mitte,"Bochum, GE Bochum-Mitte",Feldsieper Str. 94,44809,Bochum,646,2349505313.0,100048@schule.nrw.de,1,"Bochum, Stadt",0,"(51.49894035573835, 7.199268761487333)",51.49894035573835,7.199268761487333
37,100049,Grundschule,dreieins-Grundschule als priv.Ersatzsch.,"Aachen, GG dreieins-Grundschule .Priv.Er",Hander Weg 95,52072,Aachen,36,24199031900.0,100049@schule.nrw.de,0,Städteregion Aachen,0,"(50.8016765217187, 6.064574717921156)",50.8016765217187,6.064574717921156
38,100051,Gesamtschule,Arnold-Freymuth-Gesamtschule,"Hamm, GE Arnold-Freymuth-Gesamtschule",An der Falkschule 9,59077,Hamm,581,23818769710.0,100051@schule.nrw.de,1,"Hamm, Stadt",0,"(51.64491495, 7.739050825779046)",51.64491495,7.739050825779046
39,100052,Gesamtschule,Comenius-Gesamtschule,"Neuss, GE Comenius-Gesamtschule",Weberstr. 90a,41464,Neuss,895,21311330380.0,100052@schule.nrw.de,1,Rhein-Kreis Neuss,1,"(51.190637313230596, 6.680219923893394)",51.190637313230596,6.680219923893394
40,100053,Gemeinschaftsschule (Schulversuch),Neue Sekundarschule Dorsten,"Dorsten, SK Juliusstraße",Juliusstr. 1,46284,Dorsten,369,236228435100.0,100053@schule.nrw.de,0,Recklinghausen,1,"(51.67599972765851, 6.969143176114591)",51.67599972765851,6.969143176114591
41,100054,Grundschule,Offene Gemeinschaftsgrundschule,"Wuppertal, GG Matthäusstraße",Rathenaustr. 22,42277,Wuppertal,125,2025632080.0,100054@schule.nrw.de,0,"Wuppertal, Stadt",0,"(51.2821081815729, 7.220721034822656)",51.2821081815729,7.220721034822656
42,100056,Berufskolleg,"CJD Berufskolleg,staatl.gen.Ersatzschule","Dortmund, BK CJD Berufskolleg",Kleybredde 29,44149,Dortmund,13,231656020.0,100056@schule.nrw.de,0,"Dortmund, Stadt",0,"(51.497488997602375, 7.399231838147225)",51.497488997602375,7.399231838147225
43,100057,Förderschule,Schule für Kranke Gütersloh,"Gütersloh, KR im Füchtei",Im Füchtei 148,33334,Gütersloh,18,52415246709.0,100057@schule.nrw.de,0,Gütersloh,1,"(51.9165593, 8.331240135994186)",51.9165593,8.331240135994186
44,100058,Weiterbildungskolleg,Weiterbildungskolleg Münster,"Münster, WBK RS, Gym Uppenkampstiege",Uppenkampstiege 21,48147,Münster,586,2512892790.0,100058@schule.nrw.de,1,"Münster, Stadt",0,"(51.97492829389201, 7.634923641415)",51.97492829389201,7.634923641415
45,100059,Grundschule,FASAN Freie Aktive Schule a. Niederrhein,"Mönchengladbach, GG FASAN Freie Aktive",Alsstr. 70-72,41063,Mönchengladbach,50,21619043164.0,100059@schule.nrw.de,0,"Mönchengladbach, Stadt",0,"(51.2122746, 6.424841561746819)",51.2122746,6.424841561746819
46,100060,Berufskolleg,Textilakademie NRW Berufskolleg Sek. II,"Mönchengladbach, BK Textilakademie NRW",Rheydter Str. 329,41065,Mönchengladbach,232,216124750.0,100060@schule.nrw.de,0,"Mönchengladbach, Stadt",0,"(51.19482925, 6.469061545770222)",51.19482925,6.469061545770222
47,100061,Grundschule,Städtische Gemeinschaftsgrundschule,"Düsseldorf, GG Steinkaul",Steinkaul 27,40589,Düsseldorf,140,2118925660.0,100061@schule.nrw.de,0,"Düsseldorf, Stadt",0,"(51.17334276665673, 6.822981684528144)",51.17334276665673,6.822981684528144
48,100062,Förderschule,Schule für Kranke Paderborn,"Paderborn, KR LWL",Am Ostfriedhof 10,33098,Paderborn,41,5251682213600.0,100062@schule.nrw.de,0,Paderborn,1,"(51.711630197753095, 8.754784819168123)",51.711630197753095,8.754784819168123
49,100063,Gesamtschule,Ida-Noddack-Gesamtschule,"Wesel, GE Ida Noddack",Martinistr. 12,46483,Wesel,213,28116497940.0,100063@schule.nrw.de,0,Wesel,1,"(51.66291397348745, 6.615355135828056)",51.66291397348745,6.615355135828056
50,100064,Grundschule,Städtische Gemeinschaftsgrundschule,"Bonn, GG Peter-Klein-Straße",Peter-Klein-Str. 4,53117,Bonn,188,2287789112.0,100064@schule.nrw.de,0,"Bonn, Stadt",0,"(50.7564089247956, 7.069584003292003)",50.7564089247956,7.069584003292003
51,100065,Grundschule,Städtische Grundschule,"Münster, GG Wolbeck - Nord",Grenkuhlenweg 21,48167,Münster,103,2506303830.0,100065@schule.nrw.de,0,"Münster, Stadt",0,"(51.921725291808194, 7.697014975186084)",51.921725291808194,7.697014975186084
52,100066,Hauptschule,Glückauf-Schule,"Essen, GH Glückauf-Schule",Bischoffstr. 120,45329,Essen,261,201345175.0,100066@schule.nrw.de,0,"Essen, Stadt",0,"(51.51003929856118, 7.0101320775841875)",51.51003929856118,7.0101320775841875
53,100067,Grundschule,Städtische Katholische Grundschule,"Düsseldorf, KG Niederkassel",Niederkasseler Str. 36,40547,Düsseldorf,326,2118924500.0,100067@schule.nrw.de,0,"Düsseldorf, Stadt",0,"(51.2421051281243, 6.737604568460747)",51.2421051281243,6.737604568460747
54,100068,Gesamtschule,Gesamtschule Berrenrather Straße,"Köln, GE Berrenrather Straße",Berrenrather Str. 488,50937,Köln,205,22128550626.0,100068@schule.nrw.de,0,"Köln, Stadt",0,"(50.917594205000846, 6.922167779145012)",50.917594205000846,6.922167779145012
55,100069,Gesamtschule,Gesamtschule am Berliner Ring,"Monheim am Rhein, GE Berliner Ring",Berliner Ring 5,40789,Monheim am Rhein,267,21739514850.0,100069@schule.nrw.de,0,Mettmann,1,"(51.0981435, 6.902059717023381)",51.0981435,6.902059717023381
56,100069,Gesamtschule,Gesamtschule am Berliner Ring,"Monheim am Rhein, GE Berliner Ring",Berliner Ring 5,40789,Monheim am Rhein,267,21739514850.0,100069@schule.nrw.de,0,Mettmann,1,"(51.0981435, 6.902059717023381)",51.0981435,6.902059717023381
57,100069,Gesamtschule,Gesamtschule am Berliner Ring,"Monheim am Rhein, GE Berliner Ring",Berliner Ring 5,40789,Monheim am Rhein,267,21739514850.0,100069@schule.nrw.de,0,Mettmann,1,"(51.0981435, 6.902059717023381)",51.0981435,6.902059717023381
58,100070,Gesamtschule,Gesamtschule Velbert-Neviges,"Velbert, GE Velbert-Neviges",An der Maikammer 46-54,42553,Velbert,230,205349690.0,100070@schule.nrw.de,0,Mettmann,1,"(51.30862286162685, 7.084072034237194)",51.30862286162685,7.084072034237194
59,100071,Gesamtschule,Gesamtschule Dellbrücker Mauspfad,"Köln, GE Dellbrücker Mauspfad",Dellbrücker Mauspfad 198-200,51069,Köln,654,221938500448.0,100071@schule.nrw.de,1,"Köln, Stadt",0,"(50.98302326987997, 7.063384171043245)",50.98302326987997,7.063384171043245
60,100073,Grundschule,"Kath. Grundschule St. Michael, Staatl.","Paderborn, KG St. Michael",Am Abdinghof 6,33098,Paderborn,63,52516939125.0,100073@schule.nrw.de,0,Paderborn,1,"(51.711630197753095, 8.754784819168123)",51.711630197753095,8.754784819168123
61,100074,Förderschule,Hundertwasser-Schule,"Altena, FÖ SQ, LE Hundertwasser-Schule",Nüggelnstück 3,58762,Altena,241,2352549200.0,100074@schule.nrw.de,0,Märkischer Kreis,1,"(51.278170349999996, 7.668831087558672)",51.278170349999996,7.668831087558672
62,100075,Förderschule,Schulischer Lernort Regenbogenschulhaus,"Ahlen, FÖ SL Regenbogenschulhaus",Im Pattenmeicheln 14,59229,Ahlen,0,238296899411.0,100075@schule.nrw.de,0,Warendorf,1,"(51.739773400000004, 7.911082536436533)",51.739773400000004,7.911082536436533
63,100076,Grundschule,Grundschule St. Walburga Neuenheerse,"Bad Driburg, GG St. Walburga Neuenheerse",Taildor 8,33014,Bad Driburg,71,5259542.0,100076@schule.nrw.de,0,Höxter,1,"(51.735102850000004, 9.035998472319717)",51.735102850000004,9.035998472319717
64,100077,Gesamtschule,Gesamtschule Hiesfeld,"Dinslaken, GE Hiesfeld",Kirchstr. 65,46539,Dinslaken,115,2064828410.0,100077@schule.nrw.de,0,Wesel,1,"(51.56364524472041, 6.772933825050044)",51.56364524472041,6.772933825050044
65,100078,Grundschule,LOGOS-Grundschule,"Köln, GG LOGOS",Arnsberger Str. 11,51065,Köln,30,22116908487.0,100078@schule.nrw.de,0,"Köln, Stadt",0,"(50.95590612302467, 7.010821068699274)",50.95590612302467,7.010821068699274
66,100079,Grundschule,Paulus Schule,"Düsseldorf, KG Paulus Schule",Paulusplatz 1,40237,Düsseldorf,334,211667608.0,100079@schule.nrw.de,0,"Düsseldorf, Stadt",0,"(51.236083743341645, 6.807213458852006)",51.236083743341645,6.807213458852006
67,100081,Förderschule,Schule am Niederrhein,"Kamp-Lintfort, FÖ LE,ES Sch.a.Niederrhei",Friedrich-Heinrich-Allee 24,47475,Kamp-Lintfort,140,284250340.0,100081@schule.nrw.de,0,Wesel,1,"(51.5200643, 6.533145864768327)",51.5200643,6.533145864768327
68,100082,Realschule,Private Realschule Altenbeken,"Altenbeken, RS Altenbeken",Gardeweg 7,33184,Altenbeken,86,5255930978.0,100082@schule.nrw.de,0,Paderborn,1,"(51.743576747530454, 8.943083362420207)",51.743576747530454,8.943083362420207
69,100083,Grundschule,Felix-Manz-Schule,"Bergkamen, EG Felix-Manz-Schule",Kleiweg 10,59192,Bergkamen,49,23072018630.0,100083@schule.nrw.de,0,Unna,1,"(51.62414015, 7.631811053718149)",51.62414015,7.631811053718149
70,100084,Grundschule,Grundschule Zukunftsschule Lippstadt,"Lippstadt, GG Zukunftsschule",Im Eichholz 10,59556,Lippstadt,49,294192347016.0,100084@schule.nrw.de,0,Soest,1,"(51.67649875, 8.298068734493377)",51.67649875,8.298068734493377
71,100085,Gesamtschule,Green-Gesamtschule,"Duisburg, GE Green-Gesamtschule",Körnerplatz 2,47226,Duisburg,927,20659057811.0,100085@schule.nrw.de,1,"Duisburg, Stadt",0,"(51.40714033860088, 6.717511484049497)",51.40714033860088,6.717511484049497
72,100086,Gesamtschule,Private Ökumenische Montessori-,"Hagen, GE Priv. Ökumenische Montessori",Am Höing 12,58097,Hagen,24,23313400070.0,100086@schule.nrw.de,0,"Hagen, Stadt",0,"(51.37064158654995, 7.476981517059637)",51.37064158654995,7.476981517059637
73,100087,Waldorfschule,Freie Waldorfschule Niederrhein-Aue,"Uedem, FW Niederrhein-Aue",Meursfeldstr. 8,47589,Uedem,58,28253079471.0,100087@schule.nrw.de,0,Kleve,1,"(51.675578599999994, 6.29360172348578)",51.675578599999994,6.29360172348578
74,100088,Grundschule,Städt. Gem. Grundschule Kastanienallee,"Velbert, GG Kastanienallee",Kastanienallee 19 - 21,42549,Velbert,527,205121705.0,100088@schule.nrw.de,1,Mettmann,1,"(51.33585450456256, 7.025205791731364)",51.33585450456256,7.025205791731364
75,100089,Gesamtschule,Heinrich-Böll-Gesamtschule,"Bornheim, GE Bornheim 2",Beethovenstr. 57,53332,Bornheim,556,222791490.0,100089@schule.nrw.de,1,Rhein-Sieg-Kreis,1,"(50.772649386131924, 6.968245411958943)",50.772649386131924,6.968245411958943
76,100090,Realschule,Realschule Kettwig,"Essen, RS Kettwig",Brederbachstr. 19,45219,Essen,426,2054940430.0,100090@schule.nrw.de,0,"Essen, Stadt",0,"(51.3668247237422, 6.940292914142123)",51.3668247237422,6.940292914142123
77,100091,Grundschule,Ida Gerhardi Schule,"Lüdenscheid, GG Ida Gerhardi",Freiherr-vom-Stein-Str. 52,58511,Lüdenscheid,0,23516583070.0,100091@schule.nrw.de,0,Märkischer Kreis,1,"(51.2135913, 7.631060632465278)",51.2135913,7.631060632465278
78,100092,Grundschule,Städt. Kath. Grundschule,"Düsseldorf, KG Rather Kreuzweg",Rather Kreuzweg 21,40472,Düsseldorf,189,2118992882.0,100092@schule.nrw.de,0,"Düsseldorf, Stadt",0,"(51.272641120005154, 6.807180565217458)",51.272641120005154,6.807180565217458
79,100093,Grundschule,Grundschule Mitte,"Beckum, GG Grundschule Mitte",Brinkmannstr. 3,59269,Beckum,0,252112051.0,100093@schule.nrw.de,0,Warendorf,1,"(51.7595483, 8.04956175172589)",51.7595483,8.04956175172589
80,100094,Grundschule,Bonifatiusschule,"Dorsten, GG Bonifatiusschule",Pliesterbecker Str. 76,46284,Dorsten,48,236261254.0,100094@schule.nrw.de,0,Recklinghausen,1,"(51.67599972765851, 6.969143176114591)",51.67599972765851,6.969143176114591
81,100095,Förderschule,Drachenfelsschule,"Königswinter,FÖ LE, SQ Drachenfelsschule",Friedenstr. 22,53639,Königswinter,125,2223908286.0,100095@schule.nrw.de,0,Rhein-Sieg-Kreis,1,"(50.70143517368064, 7.240757924568521)",50.70143517368064,7.240757924568521
82,100096,Gesamtschule,Städtische Gesamtschule Rösrath,"Rösrath, GE Rösrath",Freiherr-vom-Stein-Str. 25,51503,Rösrath,108,22051236.0,100096@schule.nrw.de,0,Rheinisch-Bergischer Kreis,1,"(50.90482765, 7.181929057913127)",50.90482765,7.181929057913127
83,100097,Förderschule,Förderschule Atheneé Royal,"Düren, FÖ ES,LE, SQ Atheneé Royal",Rudolf-Diesel-Str. 19,52351,Düren,267,24212245400.0,100097@schule.nrw.de,0,Düren,1,"(50.7900655, 6.512115979352977)",50.7900655,6.512115979352977
84,100098,Gesamtschule,Therese-Münsterteicher-Gesamtschule,"Ahlen, GE Sedanstr.",Sedanstr. 54,59227,Ahlen,816,2382911620.0,100098@schule.nrw.de,1,Warendorf,1,"(51.7790134, 7.87812054009178)",51.7790134,7.87812054009178
85,100099,Förderschule,Förderzentrum Kleve Förderschule,"Kleve, FÖ SQ, LE, ES Hevelingstr.",Frankenstr. 25,47533,Kleve,158,2821997850.0,100099@schule.nrw.de,0,Kleve,1,"(51.786289796412106, 6.128205392097223)",51.786289796412106,6.128205392097223
86,100101,Förderschule,Schule am Hügel,"Bonn, FÖ LE, ES Schule am Hügel",Am Propsthof 102,53121,Bonn,141,2287760980.0,100101@schule.nrw.de,0,"Bonn, Stadt",0,"(50.730489399518405, 7.063791501391732)",50.730489399518405,7.063791501391732
87,100102,Förderschule,Schule am Rheingarten,"Bonn,FÖ LE, ES, SQ Schule am Rheingarten",Ringstr. 69-71,53225,Bonn,126,228776541.0,100102@schule.nrw.de,0,"Bonn, Stadt",0,"(50.74473540668149, 7.121553041467381)",50.74473540668149,7.121553041467381
88,100103,Gesamtschule,Europaschule Rheinberg,"Rheinberg, GE Europaschule Rheinberg",Dr.-Aloys-Wittrup-Str. 11,47495,Rheinberg,1009,2843970770.0,100103@schule.nrw.de,1,Wesel,1,"(51.5644863, 6.613562922851614)",51.5644863,6.613562922851614
89,100104,Gemeinschaftsschule (Schulversuch),Hönnequellschule,"Neuenrade, SK Hönnequellschule",Niederheide 3,58809,Neuenrade,393,23925022770.0,100104@schule.nrw.de,0,Märkischer Kreis,1,"(51.281592399999994, 7.82475292536957)",51.281592399999994,7.82475292536957
90,100105,Grundschule,Erzbischöfliche Grundschule am,"Köln, KG am Bildungscampus",Neuerburgstr. 19,51103,Köln,26,22188060208.0,100105@schule.nrw.de,0,"Köln, Stadt",0,"(50.9407931827634, 7.012942421774109)",50.9407931827634,7.012942421774109
91,100106,Förderschule,Förderschule im Verbund Nord des,"Wermelskirchen, FÖ LE,ES,SQ Verbund Nord",Robert-Stolz-Str. 19,42929,Wermelskirchen,141,21968877780.0,100106@schule.nrw.de,0,Rheinisch-Bergischer Kreis,1,"(51.11295975, 7.220520909931617)",51.11295975,7.220520909931617
92,100107,Gemeinschaftsschule (Schulversuch),Leonardo-da-Vinci-Schule,Morsbach SK Leonardo-da-Vinci,Hahner Str. 31,51597,Morsbach,376,22949939710.0,100107@schule.nrw.de,0,Oberbergischer Kreis,1,"(50.862006904601614, 7.715242354320646)",50.862006904601614,7.715242354320646
93,100108,Gemeinschaftsschule (Schulversuch),Jacobischule,"Kalletal, SK Jacobischule",Weinkamp 14,32689,Kalletal,360,5264647770.0,100108@schule.nrw.de,0,Lippe,1,"(52.12736855, 8.96456340423294)",52.12736855,8.96456340423294
94,100109,Grundschule,Marienschule,"Düsseldorf, KG Marienschule",Rheindorfer Weg 20,40591,Düsseldorf,344,2118924360.0,100109@schule.nrw.de,0,"Düsseldorf, Stadt",0,"(51.188290301552996, 6.818889616703081)",51.188290301552996,6.818889616703081
95,100111,Gemeinschaftsschule (Schulversuch),Konrad-Zuse-Schule,"Langenberg, SK Konrad-Zuse",Bentelerstr. 104,33449,Langenberg,347,52487675.0,100111@schule.nrw.de,0,Gütersloh,1,"(51.7634828, 8.321290305917122)",51.7634828,8.321290305917122
96,100112,Gemeinschaftsschule (Schulversuch),Sekundarschule Ascheberg,"Ascheberg, SK Bahnhofsweg",Bahnhofsweg 5,59387,Ascheberg,424,25939299230.0,100112@schule.nrw.de,0,Coesfeld,1,"(51.77426775, 7.629073679731317)",51.77426775,7.629073679731317
97,100114,Berufskolleg,Kolping-Sozial-Berufskolleg,"Delbrück,BK Kolping-Sozial-Berufskolleg",Springpatt 3,33129,Delbrück,28,52512888546.0,100114@schule.nrw.de,0,Paderborn,1,"(51.773701900000006, 8.538866522213652)",51.773701900000006,8.538866522213652
98,100115,Grundschule,Cornelia Funke Schule,"Recklinghausen, GG Cornelia Funke Schule",Bochumer Str. 22,45661,Recklinghausen,49,23617988.0,100115@schule.nrw.de,0,Recklinghausen,1,"(51.570730691630416, 7.194697360771593)",51.570730691630416,7.194697360771593
99,100116,Grundschule,Städt. Grundschule an der Schulstraße,"Herne, GG an der Schulstraße",Schulstr. 57,44623,Herne,0,2323164492.0,100116@schule.nrw.de,0,"Herne, Stadt",0,"(51.537705014851525, 7.224544394117618)",51.537705014851525,7.224544394117618
100,100117,Realschule,Weitsicht! - Freie Realschule Wachtendon,"Wachtendonk, RS Weitsicht! - Fr. Realsch",Schoelkensdyck 1,47669,Wachtendonk,17,28363469960.0,100117@schule.nrw.de,0,Kleve,1,"(51.40219625, 6.335062405456057)",51.40219625,6.335062405456057
101,100118,Förderschule,Albert-Schweitzer-Schule,"Lage, FÖ LE Albert-Schweitzer",Kampweg 11,32791,Lage,137,52322558.0,100118@schule.nrw.de,0,Lippe,1,"(51.98661734008194, 8.784302203325948)",51.98661734008194,8.784302203325948
102,100119,Grundschule,Gemeinschaftsgrundschule Rahlenberg,"Herscheid, GG Rahlenberg",Bergstr. 7,58849,Herscheid,0,23576007010.0,100119@schule.nrw.de,0,Märkischer Kreis,1,"(51.18521115, 7.755968446481029)",51.18521115,7.755968446481029
103,100120,Realschule,Private Realschule Sonsbeck,"Sonsbeck, RS Herrenstraße",Herrenstr. 70,47665,Sonsbeck,17,283891330.0,100120@schule.nrw.de,0,Wesel,1,"(51.6169469, 6.369905480805911)",51.6169469,6.369905480805911
104,100121,Gymnasium,Gymnasium Carolinenschule,"Bochum, Gym Carolinenschule",Springorumallee 1-3,44795,Bochum,59,23438877200.0,100121@schule.nrw.de,0,"Bochum, Stadt",0,"(51.45090312411993, 7.1989753230382805)",51.45090312411993,7.1989753230382805
105,100122,Grundschule,Hermann Gmeiner Schule,"Düsseldorf, KG Hermann Gmeiner Schule",Schillstr. 7,40599,Düsseldorf,177,2118926160.0,100122@schule.nrw.de,0,"Düsseldorf, Stadt",0,"(51.17872629721034, 6.86724492401615)",51.17872629721034,6.86724492401615
106,100123,Grundschule,Freie Schule Eifel,"Heimbach, GG Freie Schule Eifel",Karl-H.-Krischer-Platz 1,52396,Heimbach,16,24468098582.0,100123@schule.nrw.de,0,Düren,1,"(50.63099285, 6.486977820969605)",50.63099285,6.486977820969605
107,100124,Grundschule,AMSEL Grundschule,"Gangelt, GG AMSEL Grundschule",Geilenkirchener Str. 54,52538,Gangelt,11,15773260604.0,100124@schule.nrw.de,0,Kreis Heinsberg,1,"(51.00737995, 5.984794334299872)",51.00737995,5.984794334299872
108,100124,Grundschule,AMSEL Grundschule,"Gangelt, GG AMSEL Grundschule",Geilenkirchener Str. 54,52538,Gangelt,11,15773260604.0,100124@schule.nrw.de,0,Kreis Heinsberg,1,"(51.00737995, 5.984794334299872)",51.00737995,5.984794334299872
109,100125,Gesamtschule,Emmy-Noether-Gesamtschule,"Neuenkirchen, GE Emmy-Noether",Friedrich-Bülten-Str. 15,48485,Neuenkirchen,0,59733136.0,100125@schule.nrw.de,0,Steinfurt,1,"(52.23683565, 7.367547941155164)",52.23683565,7.367547941155164
110,100126,Gesamtschule,Gesamtschule Ickern,"Castrop-Rauxel, GE Gesamtsch.Ickern",Waldenburger Str. 130,44581,Castrop-Rauxel,0,,100126@schule.nrw.de,0,Recklinghausen,1,"(51.595298391990916, 7.331492992352836)",51.595298391990916,7.331492992352836
111,100127,Grundschule,Aachen International School-Vincerola,"Aachen, GG Aachen International School",Campus-Boulevard 60,52074,Aachen,7,24199039203.0,100127@schule.nrw.de,0,Städteregion Aachen,0,"(50.775499777035456, 6.052256545741093)",50.775499777035456,6.052256545741093
112,100128,Grundschule,Grundschule Vulkanstraße,"Krefeld, GG Vulkanstraße",Vulkanstr. 264,47807,Krefeld,0,2151311661.0,100128@schule.nrw.de,0,"Krefeld, Stadt",0,"(51.30482462147121, 6.584554950294589)",51.30482462147121,6.584554950294589
113,100129,Gesamtschule,Gesamtschule Swisttal,"Swisttal, GE Swisttal",Blütenweg 10,53913,Swisttal,0,2254844926.0,100129@schule.nrw.de,0,Rhein-Sieg-Kreis,1,"(50.683213805504664, 6.917154445210005)",50.683213805504664,6.917154445210005
114,100130,Gemeinschaftsschule (Schulversuch),Sekundarschule Am Wiehen,"Minden, SK Am Wiehen",Königswall 14,32423,Minden,0,57193419460.0,100130@schule.nrw.de,0,Minden-Lübbecke,1,"(52.292925145905585, 8.942352836659479)",52.292925145905585,8.942352836659479
115,100131,Gesamtschule,Städt. Gesamtschule Mettmann,"Mettmann, GE Borner Weg",Borner Weg 5,40822,Mettmann,0,210417330.0,100131@schule.nrw.de,0,Mettmann,1,"(51.2560083, 6.984562767802726)",51.2560083,6.984562767802726
116,100132,Gesamtschule,Reinoldi-Gesamtschule,"Dortmund, GE Reinoldi-Gesamtschule",Im Odemsloh 107,44357,Dortmund,0,2315012280.0,100132@schule.nrw.de,0,"Dortmund, Stadt",0,"(51.55395787750129, 7.370604071958267)",51.55395787750129,7.370604071958267
117,100133,Berufskolleg,Kolping-Berufskolleg Paderborn,"Paderborn, BK Kolping Berufskolleg",Otto-Stadler-Str. 9,33100,Paderborn,0,52511809447.0,100133@schule.nrw.de,0,Paderborn,1,"(51.72199965298694, 8.801331650025798)",51.72199965298694,8.801331650025798
118,100136,Förderschule,"Schule Talstraße, Fördersch. im Verbund","Stolberg, FÖ LE,ES,SQ Schule Talstraße",Talstr. 26,52223,Stolberg (Rhld.),0,240224852.0,100136@schule.nrw.de,0,Städteregion Aachen,0,"(50.747423850000004, 6.214740741544084)",50.747423850000004,6.214740741544084
119,100138,Grundschule,"Freie Christliche Schule Siegen ""An der","Siegen, EG ""An der Weiß""",Am Lohgraben 38,57074,Siegen,0,2713039930.0,100138@schule.nrw.de,0,Siegen-Wittgenstein,1,"(50.871418871302886, 8.042159647144333)",50.871418871302886,8.042159647144333
120,100139,Gesamtschule,Eugen Langen Gesamtschule,"Wuppertal, GE Eugen Lange",Boltenheide 4,42329,Wuppertal,0,2024292255.0,100139@schule.nrw.de,0,"Wuppertal, Stadt",0,"(51.22558311944667, 7.0710819510932215)",51.22558311944667,7.0710819510932215
121,100141,Grundschule,Freie Schule Rhein-Sieg,"Hennef, GG Freie Schule Rhein-Sieg",Sövener Str. 60,53773,Hennef (Sieg),0,,100141@schule.nrw.de,0,Rhein-Sieg-Kreis,1,"(50.76271725238684, 7.302868344612744)",50.76271725238684,7.302868344612744
122,100142,Realschule,Private Realschule Wettringen,"Wettringen, RS Private Realschule",Bültstr. 2,48493,Wettringen,0,,100142@schule.nrw.de,0,Steinfurt,1,"(52.23451715, 7.280909386474969)",52.23451715,7.280909386474969
123,100158,Grundschule,Städtische Katholische Grundschule,"Düsseldorf, KG Josef-Kleesattel-Str.",Josef-Kleesattel-Str. 13,40595,Düsseldorf,180,2117393600.0,100158@schule.nrw.de,0,"Düsseldorf, Stadt",0,"(51.13764246001944, 6.901658578674887)",51.13764246001944,6.901658578674887
124,100160,Grundschule,Grundschule Kaiserswerth,"Düsseldorf, GG Kaiserswerth",Fliednerstr. 32,40489,Düsseldorf,307,2118923641.0,100160@schule.nrw.de,0,"Düsseldorf, Stadt",0,"(51.3161709881825, 6.755696525543536)",51.3161709881825,6.755696525543536
125,100171,Grundschule,Städt. Kath. Grundschule,"Düsseldorf, KG Unter den Eichen",Unter den Eichen 26,40625,Düsseldorf,388,2118928292.0,100171@schule.nrw.de,0,"Düsseldorf, Stadt",0,"(51.23299887255058, 6.85297594757163)",51.23299887255058,6.85297594757163
126,100183,Grundschule,Christophorus-Schule,"Düsseldorf, KG Christophorus",Werstener Friedhofstr. 10,40591,Düsseldorf,203,2118926170.0,100183@schule.nrw.de,0,"Düsseldorf, Stadt",0,"(51.188290301552996, 6.818889616703081)",51.188290301552996,6.818889616703081
127,100213,Grundschule,Henri-Dunant-Schule,"Düsseldorf, GG Henri-Dunant-Schule",Rheindorfer Weg 20,40591,Düsseldorf,219,2118924350.0,100213@schule.nrw.de,0,"Düsseldorf, Stadt",0,"(51.188290301552996, 6.818889616703081)",51.188290301552996,6.818889616703081
128,100225,Grundschule,Städt. Gem. Grundschule,"Düsseldorf, GG Bingener Weg",Bingener Weg 10,40229,Düsseldorf,214,2118924378.0,100225@schule.nrw.de,0,"Düsseldorf, Stadt",0,"(51.19853748710821, 6.837404375839993)",51.19853748710821,6.837404375839993
129,100237,Grundschule,Städt. Gem. Grundschule,"Düsseldorf, GG Gumbertstr.",Gumbertstr. 191,40229,Düsseldorf,185,2119215317.0,100237@schule.nrw.de,0,"Düsseldorf, Stadt",0,"(51.19853748710821, 6.837404375839993)",51.19853748710821,6.837404375839993
130,100250,Grundschule,St. -Peter-Schule,"Düsseldorf, KG St. -Peter",Jahnstr. 97,40215,Düsseldorf,192,2118924741.0,100250@schule.nrw.de,0,"Düsseldorf, Stadt",0,"(51.21433893759868, 6.784112305616602)",51.21433893759868,6.784112305616602
131,100262,Grundschule,St. Michael Schule,"Düsseldorf, KG St. Michael Schule",Kempgensweg 65,40231,Düsseldorf,176,2118921726.0,100262@schule.nrw.de,0,"Düsseldorf, Stadt",0,"(51.21035603257787, 6.833645167072699)",51.21035603257787,6.833645167072699
132,100274,Grundschule,Franz-Boehm-Schule,"Düsseldorf, KG Franz-Boehm-Schule",Kamper Weg 291,40627,Düsseldorf,170,2119262055.0,100274@schule.nrw.de,0,"Düsseldorf, Stadt",0,"(51.2099486392608, 6.868848526443981)",51.2099486392608,6.868848526443981
133,100286,Grundschule,St. Apollinaris Schule,"Düsseldorf, KG St. Apollinaris Schule",Itterstr. 16,40589,Düsseldorf,320,2118924726.0,100286@schule.nrw.de,0,"Düsseldorf, Stadt",0,"(51.17334276665673, 6.822981684528144)",51.17334276665673,6.822981684528144
134,100298,Grundschule,Städtische Katholische Grundschule,"Düsseldorf, KG Lohausen",Im Grund 78,40474,Düsseldorf,84,2118992798.0,100298@schule.nrw.de,0,"Düsseldorf, Stadt",0,"(51.26622733739631, 6.74871514764611)",51.26622733739631,6.74871514764611
135,100304,Grundschule,Städtische Katholische Grundschule,"Düsseldorf, KG Mettmanner Straße",Hubbelrather Str. 13,40233,Düsseldorf,229,2118997971.0,100304@schule.nrw.de,0,"Düsseldorf, Stadt",0,"(51.22415219410314, 6.807546595802653)",51.22415219410314,6.807546595802653
136,100316,Grundschule,Städt. Kath. Grundschule,"Düsseldorf, KG Höhenstr.",Höhenstr. 5,40227,Düsseldorf,206,2118928261.0,100316@schule.nrw.de,0,"Düsseldorf, Stadt",0,"(51.21287929049312, 6.802537956792132)",51.21287929049312,6.802537956792132
137,100328,Grundschule,Gutenberg Schule,"Düsseldorf, GG Gutenberg Schule",Grafenberger Allee 384,40235,Düsseldorf,443,2118924469.0,100328@schule.nrw.de,0,"Düsseldorf, Stadt",0,"(51.23244869656203, 6.822822089079604)",51.23244869656203,6.822822089079604
138,100330,Grundschule,Städt. Gem. Grundschule Urdenbach,"Düsseldorf, GG Urdenbach",Garather Str. 16,40593,Düsseldorf,284,2118924450.0,100330@schule.nrw.de,0,"Düsseldorf, Stadt",0,"(51.15132016483364, 6.874666965266508)",51.15132016483364,6.874666965266508
139,100365,Grundschule,Volker-Rosin-Schule,"Düsseldorf, GG Volker-Rosin-Schule",Arnstadter Weg 6-16,40627,Düsseldorf,279,2118926420.0,100365@schule.nrw.de,0,"Düsseldorf, Stadt",0,"(51.2099486392608, 6.868848526443981)",51.2099486392608,6.868848526443981
140,100389,Grundschule,Städt. Gem. Grundschule,"Düsseldorf, GG Deutzer Str.",Deutzer Str. 102,40229,Düsseldorf,158,2118924793.0,100389@schule.nrw.de,0,"Düsseldorf, Stadt",0,"(51.19853748710821, 6.837404375839993)",51.19853748710821,6.837404375839993
141,100390,Grundschule,Städt. Gem. Grundschule,"Düsseldorf, GG Am Köhnen",Am Köhnen 73,40599,Düsseldorf,225,2118923970.0,100390@schule.nrw.de,0,"Düsseldorf, Stadt",0,"(51.17872629721034, 6.86724492401615)",51.17872629721034,6.86724492401615
142,100420,Grundschule,Carl Sonnenschein Schule,"Düsseldorf, KG Carl Sonnenschein Schule",Graf-Recke-Str. 153,40237,Düsseldorf,409,2118928340.0,100420@schule.nrw.de,0,"Düsseldorf, Stadt",0,"(51.236083743341645, 6.807213458852006)",51.236083743341645,6.807213458852006
143,100432,Grundschule,St.Bruno-Schule,"Düsseldorf, KG St.Bruno-Schule",An der Golzheimer Heide 120,40468,Düsseldorf,187,2118923695.0,100432@schule.nrw.de,0,"Düsseldorf, Stadt",0,"(51.267306700685225, 6.775226879636692)",51.267306700685225,6.775226879636692
144,100444,Grundschule,Paul-Klee-Schule,"Düsseldorf, KG Paul-Klee-Schule",Gerresheimer Str. 34-36,40211,Düsseldorf,208,2118923752.0,100444@schule.nrw.de,0,"Düsseldorf, Stadt",0,"(51.22840601007219, 6.7919771875954495)",51.22840601007219,6.7919771875954495
145,100468,Grundschule,Städt. Kath. Grundschule,"Düsseldorf, KG Fuldaer Str.",Fuldaer Str. 33,40229,Düsseldorf,194,2119215314.0,100468@schule.nrw.de,0,"Düsseldorf, Stadt",0,"(51.19853748710821, 6.837404375839993)",51.19853748710821,6.837404375839993
146,100470,Grundschule,Städt. Gem. Grundschule,"Düsseldorf, GG Flurstr.",Flurstr. 59,40235,Düsseldorf,209,2118924557.0,100470@schule.nrw.de,0,"Düsseldorf, Stadt",0,"(51.23244869656203, 6.822822089079604)",51.23244869656203,6.822822089079604
147,100481,Grundschule,Städt. Katholische Grundschule,"Düsseldorf, KG Florensstraße",Heinsenstr. 21,40221,Düsseldorf,178,2118924395.0,100481@schule.nrw.de,0,"Düsseldorf, Stadt",0,"(51.20188604606438, 6.75312466344698)",51.20188604606438,6.75312466344698
148,100493,Grundschule,Städt. Kath. Grundschule,"Düsseldorf, KG Fleher Str.",Fleher Str. 213,40223,Düsseldorf,276,211153916.0,100493@schule.nrw.de,0,"Düsseldorf, Stadt",0,"(51.202669927117824, 6.772761263165344)",51.202669927117824,6.772761263165344
149,100500,Grundschule,Bonifatius-Schule,"Düsseldorf, KG Bonifatius-Schule",Fleher Str. 70,40223,Düsseldorf,321,2118922110.0,100500@schule.nrw.de,0,"Düsseldorf, Stadt",0,"(51.202669927117824, 6.772761263165344)",51.202669927117824,6.772761263165344
150,100523,Grundschule,St. Franziskus Schule,"Düsseldorf, KG St. Franziskus Schule",Herchenbachstr. 2,40470,Düsseldorf,324,2118924810.0,100523@schule.nrw.de,0,"Düsseldorf, Stadt",0,"(51.25360479759886, 6.810135900878737)",51.25360479759886,6.810135900878737
151,100535,Grundschule,Städt. Kath. Grundschule,"Düsseldorf, KG Essener Str.",Essener Str. 1,40476,Düsseldorf,230,2118923807.0,100535@schule.nrw.de,0,"Düsseldorf, Stadt",0,"(51.2468771218023, 6.781691061456741)",51.2468771218023,6.781691061456741
152,100547,Grundschule,St. Cäcilia Schule,"Düsseldorf, KG St. Cäcilia Schule",Erich-Müller-Str. 31,40597,Düsseldorf,123,2118928380.0,100547@schule.nrw.de,0,"Düsseldorf, Stadt",0,"(51.164501929835694, 6.872990574290529)",51.164501929835694,6.872990574290529
153,100560,Grundschule,Städt. Kath. Grundschule,"Düsseldorf, KG Einsiedelstr.",Einsiedelstr. 25,40597,Düsseldorf,219,2118922648.0,100560@schule.nrw.de,0,"Düsseldorf, Stadt",0,"(51.164501929835694, 6.872990574290529)",51.164501929835694,6.872990574290529
154,100572,Grundschule,Max-Schule,"Düsseldorf, KG Max-Schule",Citadellstr. 2 B,40213,Düsseldorf,110,2118992493.0,100572@schule.nrw.de,0,"Düsseldorf, Stadt",0,"(51.22470112713061, 6.773519099713472)",51.22470112713061,6.773519099713472
155,100584,Grundschule,St. Elisabeth Schule,"Düsseldorf, KG St. Elisabeth Schule",Buchenstr. 16,40599,Düsseldorf,208,211744319.0,100584@schule.nrw.de,0,"Düsseldorf, Stadt",0,"(51.17872629721034, 6.86724492401615)",51.17872629721034,6.86724492401615
156,100596,Grundschule,St. Rochus-Schule,"Düsseldorf, KG St. Rochus-Schule",Gneisenaustr. 60,40477,Düsseldorf,247,2118928300.0,100596@schule.nrw.de,0,"Düsseldorf, Stadt",0,"(51.23913270550739, 6.784532748330853)",51.23913270550739,6.784532748330853
157,100602,Grundschule,Thomas-Schule,"Düsseldorf, KG Thomas-Schule",Blumenthalstr. 11,40476,Düsseldorf,227,2118924682.0,100602@schule.nrw.de,0,"Düsseldorf, Stadt",0,"(51.2468771218023, 6.781691061456741)",51.2468771218023,6.781691061456741
158,100638,Grundschule,Montessori-Grundschule Farnweg,"Düsseldorf, GG Montessori-Schule",Farnweg 10,40468,Düsseldorf,317,2114350990.0,100638@schule.nrw.de,0,"Düsseldorf, Stadt",0,"(51.267306700685225, 6.775226879636692)",51.267306700685225,6.775226879636692
159,100651,Grundschule,Adolf-Klarenbach-Schule,"Düsseldorf, GG Adolf-Klarenbach",Walther-Rathenau-Str. 15,40589,Düsseldorf,283,2118926190.0,100651@schule.nrw.de,0,"Düsseldorf, Stadt",0,"(51.17334276665673, 6.822981684528144)",51.17334276665673,6.822981684528144
160,100663,Grundschule,Städt. Gem. Grundschule Unterrath,"Düsseldorf, GG Beedstr.",Beedstr. 31,40468,Düsseldorf,94,2114791162.0,100663@schule.nrw.de,0,"Düsseldorf, Stadt",0,"(51.267306700685225, 6.775226879636692)",51.267306700685225,6.775226879636692
161,100675,Grundschule,Selma-Lagerlöf-Schule,"Düsseldorf, GG Selma-Lagerlöf",Schillstr. 7,40599,Düsseldorf,206,2118925700.0,100675@schule.nrw.de,0,"Düsseldorf, Stadt",0,"(51.17872629721034, 6.86724492401615)",51.17872629721034,6.86724492401615
162,100687,Grundschule,Friedrich-von-Bodelschwingh Schule,"Düsseldorf, EG Friedrich-v.Bodelschwingh",Cimbernstr. 24,40545,Düsseldorf,322,2115585930.0,100687@schule.nrw.de,0,"Düsseldorf, Stadt",0,"(51.23067417993876, 6.75335684719434)",51.23067417993876,6.75335684719434
163,100699,Grundschule,Joachim Neander Schule,"Düsseldorf, GG Joachim Neander",Rather Markt 2,40472,Düsseldorf,282,2119653337.0,100699@schule.nrw.de,0,"Düsseldorf, Stadt",0,"(51.272641120005154, 6.807180565217458)",51.272641120005154,6.807180565217458
164,100705,Grundschule,Brehm Schule,"Düsseldorf, EG Brehm Schule",Karl-Müller-Str. 25,40237,Düsseldorf,443,2118923941.0,100705@schule.nrw.de,0,"Düsseldorf, Stadt",0,"(51.236083743341645, 6.807213458852006)",51.236083743341645,6.807213458852006
165,100717,Grundschule,Elsa-Brandström-Schule,"Düsseldorf, EG Elsa-Brandström-Schule",An der Golzheimer Heide 120,40468,Düsseldorf,219,2118923692.0,100717@schule.nrw.de,0,"Düsseldorf, Stadt",0,"(51.267306700685225, 6.775226879636692)",51.267306700685225,6.775226879636692
166,100730,Grundschule,Martin-Luther-Schule,"Düsseldorf, EG Martin-Luther-Schule",Gotenstr. 20,40225,Düsseldorf,205,2118921729.0,100730@schule.nrw.de,0,"Düsseldorf, Stadt",0,"(51.19836105441218, 6.787515273586995)",51.19836105441218,6.787515273586995
167,100742,Grundschule,Matthias-Claudius-Schule,"Düsseldorf, GG Matthias-Claudius-Schule",Bongardstr. 9,40479,Düsseldorf,391,2118928310.0,100742@schule.nrw.de,0,"Düsseldorf, Stadt",0,"(51.23413967108869, 6.784493547224542)",51.23413967108869,6.784493547224542
168,100754,Grundschule,Hanna-Zürndorfer-Schule,"Düsseldorf, EG Hanna-Zürndorfer-Schule",Benderstr. 78,40625,Düsseldorf,205,2118928320.0,100754@schule.nrw.de,0,"Düsseldorf, Stadt",0,"(51.23299887255058, 6.85297594757163)",51.23299887255058,6.85297594757163
169,100766,Grundschule,Beckbusch-Schule,"Düsseldorf, GG Beckbusch-Schule",Beckbuschstr. 2,40474,Düsseldorf,305,2118994719.0,100766@schule.nrw.de,0,"Düsseldorf, Stadt",0,"(51.26622733739631, 6.74871514764611)",51.26622733739631,6.74871514764611
170,100778,Grundschule,Städt. Gem. Grundschule Lörick,"Düsseldorf, GG Wickrather Str.",Wickrather Str. 31,40547,Düsseldorf,243,2118924635.0,100778@schule.nrw.de,0,"Düsseldorf, Stadt",0,"(51.2421051281243, 6.737604568460747)",51.2421051281243,6.737604568460747
171,100780,Grundschule,Städt. Gem. Grundschule,"Düsseldorf, GG Vennhauser Allee",Vennhauser Allee 160-162,40627,Düsseldorf,203,2119262037.0,100780@schule.nrw.de,0,"Düsseldorf, Stadt",0,"(51.2099486392608, 6.868848526443981)",51.2099486392608,6.868848526443981
172,100791,Grundschule,Städt. Gem. Grundschule,"Düsseldorf, GG Südallee",Südallee 100,40593,Düsseldorf,283,2118928400.0,100791@schule.nrw.de,0,"Düsseldorf, Stadt",0,"(51.15132016483364, 6.874666965266508)",51.15132016483364,6.874666965266508
173,100808,Grundschule,Städt. Gem. Grundschule,"Düsseldorf, GG Sonnenstr.",Sonnenstr. 10,40227,Düsseldorf,290,2118924780.0,100808@schule.nrw.de,0,"Düsseldorf, Stadt",0,"(51.21287929049312, 6.802537956792132)",51.21287929049312,6.802537956792132
174,100810,Grundschule,Städt. Gem. Grundschule,"Düsseldorf, GG Konkordiastr.",Konkordiastr. 26,40219,Düsseldorf,270,2118923662.0,100810@schule.nrw.de,0,"Düsseldorf, Stadt",0,"(51.213242968797424, 6.763198347728626)",51.213242968797424,6.763198347728626
175,100821,Grundschule,Don-Bosco-Montessori-Schule,"Düsseldorf, GG Don-Bosco-Montessori-Schu",Salierstr. 37,40545,Düsseldorf,202,2115585936.0,100821@schule.nrw.de,0,"Düsseldorf, Stadt",0,"(51.23067417993876, 6.75335684719434)",51.23067417993876,6.75335684719434
176,100833,Grundschule,Städt. Gem. Grundschule,"Düsseldorf, GG Rolandstr.",Rolandstr. 40,40476,Düsseldorf,370,2118923780.0,100833@schule.nrw.de,0,"Düsseldorf, Stadt",0,"(51.2468771218023, 6.781691061456741)",51.2468771218023,6.781691061456741
177,100845,Grundschule,Städt. Gem. Grundschule,"Düsseldorf, GG Richardstr.",Richardstr. 14,40231,Düsseldorf,313,2118923951.0,100845@schule.nrw.de,0,"Düsseldorf, Stadt",0,"(51.21035603257787, 6.833645167072699)",51.21035603257787,6.833645167072699
178,100869,Grundschule,Städtische Gemeinschaftsgrundschule,"Düsseldorf, GG Wrangelstraße",Wrangelstr. 40,40470,Düsseldorf,208,2118992880.0,100869@schule.nrw.de,0,"Düsseldorf, Stadt",0,"(51.25360479759886, 6.810135900878737)",51.25360479759886,6.810135900878737
179,100870,Grundschule,Städtische Gemeinschaftsgrundschule,"Düsseldorf, GG Neustrelitzer Str.",Neustrelitzer Str. 10,40595,Düsseldorf,159,2118926770.0,100870@schule.nrw.de,0,"Düsseldorf, Stadt",0,"(51.13764246001944, 6.901658578674887)",51.13764246001944,6.901658578674887
180,100882,Grundschule,Grundschule Schloss Benrath,"Düsseldorf, GG Schloss Benrath",Erich-Müller-Str. 31,40597,Düsseldorf,186,2118928360.0,100882@schule.nrw.de,0,"Düsseldorf, Stadt",0,"(51.164501929835694, 6.872990574290529)",51.164501929835694,6.872990574290529
181,100894,Grundschule,Städt. Gem. Grundschule,"Düsseldorf, GG Max-Halbe-Straße",Max-Halbe-Str. 14,40470,Düsseldorf,217,2118923650.0,100894@schule.nrw.de,0,"Düsseldorf, Stadt",0,"(51.25360479759886, 6.810135900878737)",51.25360479759886,6.810135900878737
182,100900,Grundschule,Theodor-Heuss-Schule,"Düsseldorf, GG Theodor-Heuss-Schule",Lützenkircher Str. 2,40591,Düsseldorf,195,2118927651.0,100900@schule.nrw.de,0,"Düsseldorf, Stadt",0,"(51.188290301552996, 6.818889616703081)",51.188290301552996,6.818889616703081
183,100924,Grundschule,Astrid-Lindgren-Schule,"Düsseldorf, GG Astrid-Lindgren-Schule",Leuthenstr. 50,40231,Düsseldorf,287,2118926620.0,100924@schule.nrw.de,0,"Düsseldorf, Stadt",0,"(51.21035603257787, 6.833645167072699)",51.21035603257787,6.833645167072699
184,100936,Grundschule,Städt. Gem. Grundschule,"Düsseldorf, GG Lennestr.",Lennestr. 5,40477,Düsseldorf,194,2114846801.0,100936@schule.nrw.de,0,"Düsseldorf, Stadt",0,"(51.23913270550739, 6.784532748330853)",51.23913270550739,6.784532748330853
185,100950,Grundschule,Städt. Gem. Grundschule,"Düsseldorf, GG Krahnenburgstraße",Krahnenburgstr. 15,40472,Düsseldorf,302,2118923505.0,100950@schule.nrw.de,0,"Düsseldorf, Stadt",0,"(51.272641120005154, 6.807180565217458)",51.272641120005154,6.807180565217458
186,100961,Grundschule,Städt. Gem. Grundschule,"Düsseldorf, GG Kronprinzenstr.",Kronprinzenstr. 107,40217,Düsseldorf,311,2118924667.0,100961@schule.nrw.de,0,"Düsseldorf, Stadt",0,"(51.21285191566987, 6.774466744757409)",51.21285191566987,6.774466744757409
187,100973,Grundschule,Regenbogenschule,"Düsseldorf, GG Regenbogenschule",Kirchfeldstr. 74-80,40215,Düsseldorf,159,2118924761.0,100973@schule.nrw.de,0,"Düsseldorf, Stadt",0,"(51.21433893759868, 6.784112305616602)",51.21433893759868,6.784112305616602
188,100985,Grundschule,Sternwartschule,"Düsseldorf, GG Sternwartschule",Im Dahlacker 15,40223,Düsseldorf,228,2118922118.0,100985@schule.nrw.de,0,"Düsseldorf, Stadt",0,"(51.202669927117824, 6.772761263165344)",51.202669927117824,6.772761263165344
189,101000,Grundschule,Ferdinand-Heye-Schule,"Düsseldorf, GG Ferdinand-Heye-Schule",Heyestr. 91,40625,Düsseldorf,164,2118923763.0,101000@schule.nrw.de,0,"Düsseldorf, Stadt",0,"(51.23299887255058, 6.85297594757163)",51.23299887255058,6.85297594757163
190,101011,Grundschule,Städt. Gem. Grundschule Stoffeler Straße,"Düsseldorf, GG Stoffeler Straße",Schmiedestr. 10a,40227,Düsseldorf,244,2118999812.0,101011@schule.nrw.de,0,"Düsseldorf, Stadt",0,"(51.21287929049312, 6.802537956792132)",51.21287929049312,6.802537956792132
191,101023,Grundschule,Heinrich-Heine-Schule,"Düsseldorf, GG (Verb.) Heinrich-Heine",Heerdter Landstr. 186,40549,Düsseldorf,382,2118926400.0,101023@schule.nrw.de,0,"Düsseldorf, Stadt",0,"(51.23307665496216, 6.720100472849124)",51.23307665496216,6.720100472849124
192,101047,Grundschule,Städt. Gem. Grundschule,"Düsseldorf, GG Helmholtzstr.",Helmholtzstr. 16,40215,Düsseldorf,295,2118921780.0,101047@schule.nrw.de,0,"Düsseldorf, Stadt",0,"(51.21433893759868, 6.784112305616602)",51.21433893759868,6.784112305616602
193,101059,Grundschule,Städt. Gem. Grundschule,"Düsseldorf, GG Adam-Stegerwald-Str.",Adam-Stegerwald-Str. 14,40595,Düsseldorf,197,2118924800.0,101059@schule.nrw.de,0,"Düsseldorf, Stadt",0,"(51.13764246001944, 6.901658578674887)",51.13764246001944,6.901658578674887
194,101060,Grundschule,Willi Fährmann Schule,"Düsseldorf, GG Willi Fährmann",Ricarda-Huch-Str. 1,40595,Düsseldorf,207,2118925680.0,101060@schule.nrw.de,0,"Düsseldorf, Stadt",0,"(51.13764246001944, 6.901658578674887)",51.13764246001944,6.901658578674887
195,101072,Grundschule,Schule am Röttgersbach,"Duisburg, GG am Röttgersbach",Bilsestr. 10,47169,Duisburg,406,203590987.0,101072@schule.nrw.de,0,"Duisburg, Stadt",0,"(51.512071729418054, 6.761481367764136)",51.512071729418054,6.761481367764136
196,101084,Grundschule,Hans-Christian-Andersen-Schule,"Duisburg, GG Hans-Christian-Andersen",Wiesbadener Str. 76-78,47138,Duisburg,217,203424196.0,101084@schule.nrw.de,0,"Duisburg, Stadt",0,"(51.469026940353395, 6.798681251509006)",51.469026940353395,6.798681251509006
197,101126,Grundschule,Schule am Bergmannsplatz,"Duisburg, KG am Bergmannsplatz",Rolandstr. 2,47167,Duisburg,193,203581298.0,101126@schule.nrw.de,0,"Duisburg, Stadt",0,"(51.50081337037493, 6.798408292977913)",51.50081337037493,6.798408292977913
198,101138,Grundschule,Fährmann-Schule,"Duisburg, KG Fährmann",Neanderstr. 121,47139,Duisburg,202,203463628.0,101138@schule.nrw.de,0,"Duisburg, Stadt",0,"(51.4768262882126, 6.725603568829194)",51.4768262882126,6.725603568829194
199,101140,Grundschule,Städt. Kath. Grundschule,"Duisburg, KG Nombericher Str.",Nombericher Str. 74,47137,Duisburg,191,203442141.0,101140@schule.nrw.de,0,"Duisburg, Stadt",0,"(51.46831210428718, 6.768867750460769)",51.46831210428718,6.768867750460769
200,101151,Grundschule,Städt. Gem. Grundschule,"Duisburg, GG Friedenstr.",Friedenstr. 5-7,47053,Duisburg,324,20360800911.0,101151@schule.nrw.de,0,"Duisburg, Stadt",0,"(51.42015109057954, 6.758062021926006)",51.42015109057954,6.758062021926006
201,101163,Grundschule,Städt. Kath. Grundschule,"Duisburg, KG Böhmer Str.",Böhmer Str. 10-14,47249,Duisburg,248,20373829858.0,101163@schule.nrw.de,0,"Duisburg, Stadt",0,"(51.382342531737756, 6.762194837503175)",51.382342531737756,6.762194837503175
202,101205,Grundschule,Schule im Dichterviertel,"Duisburg, GG Schule im Dichterviertel",Kampstr. 121,47166,Duisburg,207,203553015.0,101205@schule.nrw.de,0,"Duisburg, Stadt",0,"(51.49212172637168, 6.769863318934658)",51.49212172637168,6.769863318934658
203,101217,Grundschule,Abteischule,"Duisburg, KG Abteischule",Jägerstr. 23a,47166,Duisburg,370,2032835301.0,101217@schule.nrw.de,0,"Duisburg, Stadt",0,"(51.49212172637168, 6.769863318934658)",51.49212172637168,6.769863318934658
204,101242,Grundschule,Städt. Kath. Grundschule,"Duisburg, KG Goldstr.",Goldstr. 7-9,47051,Duisburg,208,20329887758.0,101242@schule.nrw.de,0,"Duisburg, Stadt",0,"(51.43314370370495, 6.766331709442141)",51.43314370370495,6.766331709442141
205,101254,Grundschule,Städt. Kath. Grundschule,"Duisburg, KG Henriettenstr.",Henriettenstr. 25,47169,Duisburg,232,203403640.0,101254@schule.nrw.de,0,"Duisburg, Stadt",0,"(51.512071729418054, 6.761481367764136)",51.512071729418054,6.761481367764136
206,101266,Grundschule,Barbaraschule,"Duisburg, KG Barbara",Gartenstr. 110,47167,Duisburg,192,203586476.0,101266@schule.nrw.de,0,"Duisburg, Stadt",0,"(51.50081337037493, 6.798408292977913)",51.50081337037493,6.798408292977913
207,101291,Grundschule,Städt. Kath. Grundschule,"Duisburg, KG Grabenstr.",Grabenstr. 150,47057,Duisburg,196,203374712.0,101291@schule.nrw.de,0,"Duisburg, Stadt",0,"(51.424588249439644, 6.7887758278229775)",51.424588249439644,6.7887758278229775
208,101321,Grundschule,Städt. Gem. Grundschule,"Duisburg, GG Am Knappert",Am Knappert 20,47269,Duisburg,171,203766334.0,101321@schule.nrw.de,0,"Duisburg, Stadt",0,"(51.36012595348486, 6.7817542046778385)",51.36012595348486,6.7817542046778385
209,101333,Grundschule,Städt. Gem. Grundschule,"Duisburg, GG Tonstr.",Tonstr. 16,47058,Duisburg,339,2032834950.0,101333@schule.nrw.de,0,"Duisburg, Stadt",0,"(51.43848144911928, 6.789115103123662)",51.43848144911928,6.789115103123662
210,101357,Grundschule,Städt. Gem. Grundschule,"Duisburg, GG Zoppenbrückstr.",Zoppenbrückstr. 43-45,47138,Duisburg,192,203428482.0,101357@schule.nrw.de,0,"Duisburg, Stadt",0,"(51.469026940353395, 6.798681251509006)",51.469026940353395,6.798681251509006
211,101369,Grundschule,Städt. Gem. Grundschule,"Duisburg, GG Wrangelstr.",Wrangelstr. 17,47059,Duisburg,127,2032834197.0,101369@schule.nrw.de,0,"Duisburg, Stadt",0,"(51.43617701328371, 6.738058760379796)",51.43617701328371,6.738058760379796
212,101370,Grundschule,Schule Am Mattlerbusch,"Duisburg, GG Am Mattlerbusch",Wehofer Str. 45,47169,Duisburg,203,203592717.0,101370@schule.nrw.de,0,"Duisburg, Stadt",0,"(51.512071729418054, 6.761481367764136)",51.512071729418054,6.761481367764136
213,101382,Grundschule,Schule am Park,"Duisburg, GG Schule am Park",Warbruckstr. 217,47169,Duisburg,204,203591691.0,101382@schule.nrw.de,0,"Duisburg, Stadt",0,"(51.512071729418054, 6.761481367764136)",51.512071729418054,6.761481367764136
214,101394,Grundschule,Städt. Gem. Grundschule,"Duisburg, GG Heinr.-Bongers-Str.",Heinrich-Bongers-Str. 12,47137,Duisburg,314,203442536.0,101394@schule.nrw.de,0,"Duisburg, Stadt",0,"(51.46831210428718, 6.768867750460769)",51.46831210428718,6.768867750460769
215,101400,Grundschule,Städt. Gem. Grundschule,"Duisburg, GG Hochfelder Markt",St.-Johann-Str. 37,47053,Duisburg,377,20364270.0,101400@schule.nrw.de,0,"Duisburg, Stadt",0,"(51.42015109057954, 6.758062021926006)",51.42015109057954,6.758062021926006
216,101412,Grundschule,Grundschule Bruckhausen,"Duisburg, GG Bruckhausen",Schulstr. 31-35,47166,Duisburg,236,203460297.0,101412@schule.nrw.de,0,"Duisburg, Stadt",0,"(51.49212172637168, 6.769863318934658)",51.49212172637168,6.769863318934658
217,101424,Grundschule,Städtische Gemeinschaftsgrundschule,"Duisburg, GG Sandstr.",Sandstr. 46,47169,Duisburg,312,203403688.0,101424@schule.nrw.de,0,"Duisburg, Stadt",0,"(51.512071729418054, 6.761481367764136)",51.512071729418054,6.761481367764136
218,101436,Grundschule,Salzmannschule,"Duisburg, GG Salzmannschule",Max-Planck-Str. 71-73,47167,Duisburg,304,203581316.0,101436@schule.nrw.de,0,"Duisburg, Stadt",0,"(51.50081337037493, 6.798408292977913)",51.50081337037493,6.798408292977913
219,101448,Grundschule,Städt. Gem. Grundschule,"Duisburg, GG Lange Kamp",Lange Kamp 17,47139,Duisburg,298,203464972.0,101448@schule.nrw.de,0,"Duisburg, Stadt",0,"(51.4768262882126, 6.725603568829194)",51.4768262882126,6.725603568829194
220,101473,Grundschule,Städt. Gem. Grundschule,"Duisburg, GG Böhmer Str.",Böhmer Str. 10-14,47249,Duisburg,316,20373829855.0,101473@schule.nrw.de,0,"Duisburg, Stadt",0,"(51.382342531737756, 6.762194837503175)",51.382342531737756,6.762194837503175
221,101485,Grundschule,Städt. Gem. Grundschule,"Duisburg, GG Mozartstr.",Mozartstr. 30,47057,Duisburg,279,203351532.0,101485@schule.nrw.de,0,"Duisburg, Stadt",0,"(51.424588249439644, 6.7887758278229775)",51.424588249439644,6.7887758278229775
222,101503,Grundschule,Städt. Gem. Grundschule,"Duisburg, GG Lilienthalstr.",Lilienthalstr. 28,47059,Duisburg,203,203310769.0,101503@schule.nrw.de,0,"Duisburg, Stadt",0,"(51.43617701328371, 6.738058760379796)",51.43617701328371,6.738058760379796
223,101515,Grundschule,Städt. Gem. Grundschule,"Duisburg, GG Klosterstr.",Klosterstr. 18,47051,Duisburg,190,2032982344.0,101515@schule.nrw.de,0,"Duisburg, Stadt",0,"(51.43314370370495, 6.766331709442141)",51.43314370370495,6.766331709442141
224,101527,Grundschule,Hundertwasser-Schule,"Duisburg, GG Hundertwasser-Schule",Karolinenstr. 10,47137,Duisburg,197,2034176695.0,101527@schule.nrw.de,0,"Duisburg, Stadt",0,"(51.46831210428718, 6.768867750460769)",51.46831210428718,6.768867750460769
225,101540,Grundschule,Städt. Gem. Grundschule,"Duisburg, GG Humboldtstr.",Humboldtstr. 8,47166,Duisburg,297,2035522192.0,101540@schule.nrw.de,0,"Duisburg, Stadt",0,"(51.49212172637168, 6.769863318934658)",51.49212172637168,6.769863318934658
226,101552,Grundschule,Grundschule Ruhrort,"Duisburg, GG Ruhrort",Fürst-Bismarck-Str. 26,47119,Duisburg,185,2038605928.0,101552@schule.nrw.de,0,"Duisburg, Stadt",0,"(51.45903934275699, 6.732142657750617)",51.45903934275699,6.732142657750617
227,101564,Grundschule,Städt. Gem. Grundschule,"Duisburg, GG Brückenstr.",Brückenstr. 96-98,47053,Duisburg,343,203664018.0,101564@schule.nrw.de,0,"Duisburg, Stadt",0,"(51.42015109057954, 6.758062021926006)",51.42015109057954,6.758062021926006
228,101576,Grundschule,Städt. Gem. Grundschule,"Duisburg, GG Hermann-Grothe-Str.",Hermann-Grothe-Str. 99,47279,Duisburg,145,203724176.0,101576@schule.nrw.de,0,"Duisburg, Stadt",0,"(51.39205152091767, 6.8007402502973475)",51.39205152091767,6.8007402502973475
229,101588,Grundschule,Grundschule Beeckerwerth,"Duisburg, GG Beeckerwerth",Heisterbacher Str. 9,47139,Duisburg,163,203870807.0,101588@schule.nrw.de,0,"Duisburg, Stadt",0,"(51.4768262882126, 6.725603568829194)",51.4768262882126,6.725603568829194
230,101606,Grundschule,Städt. Gem. Grundschule,"Duisburg, GG Hebbelstr.",Hebbelstr. 1,47057,Duisburg,274,203353468.0,101606@schule.nrw.de,0,"Duisburg, Stadt",0,"(51.424588249439644, 6.7887758278229775)",51.424588249439644,6.7887758278229775
231,101618,Grundschule,Städt. Gem. Grundschule,"Duisburg, GG Habichtstr.",Habichtstr. 1,47055,Duisburg,223,203770394.0,101618@schule.nrw.de,0,"Duisburg, Stadt",0,"(51.40232469849828, 6.7650644592462115)",51.40232469849828,6.7650644592462115
232,101620,Grundschule,Städt. Gem. Grundschule,"Duisburg, GG Großenbaumer Allee",Großenbaumer Allee 34 a,47269,Duisburg,163,203762050.0,101620@schule.nrw.de,0,"Duisburg, Stadt",0,"(51.36012595348486, 6.7817542046778385)",51.36012595348486,6.7817542046778385
233,101631,Grundschule,Schule Kunterbunt,"Duisburg, GG Kunterbunt",Kantstr. 80,47166,Duisburg,254,2035521674.0,101631@schule.nrw.de,0,"Duisburg, Stadt",0,"(51.49212172637168, 6.769863318934658)",51.49212172637168,6.769863318934658
234,101643,Grundschule,Regenbogenschule,"Duisburg, GG Regenbogenschule",Ottostr. 65,47169,Duisburg,375,203403661.0,101643@schule.nrw.de,0,"Duisburg, Stadt",0,"(51.512071729418054, 6.761481367764136)",51.512071729418054,6.761481367764136
235,101655,Grundschule,Städt. Gem. Grundschule,"Duisburg, GG Gartenstraße",Gartenstr. 110,47167,Duisburg,201,203580972.0,101655@schule.nrw.de,0,"Duisburg, Stadt",0,"(51.50081337037493, 6.798408292977913)",51.50081337037493,6.798408292977913
236,101667,Grundschule,Grundschule Laar,"Duisburg, GG Laar",Erzstr. 10,47119,Duisburg,218,20389297.0,101667@schule.nrw.de,0,"Duisburg, Stadt",0,"(51.45903934275699, 6.732142657750617)",51.45903934275699,6.732142657750617
237,101679,Grundschule,Städt. Gem. Grundschule,"Duisburg, GG Eschenstr.",Eschenstr. 53,47055,Duisburg,238,203770095.0,101679@schule.nrw.de,0,"Duisburg, Stadt",0,"(51.40232469849828, 6.7650644592462115)",51.40232469849828,6.7650644592462115
238,101692,Grundschule,Otfried-Preußler-Schule,"Duisburg, GG Otfried-Preußler",Brückelstr. 5,47137,Duisburg,299,2034176860.0,101692@schule.nrw.de,0,"Duisburg, Stadt",0,"(51.46831210428718, 6.768867750460769)",51.46831210428718,6.768867750460769
239,101709,Grundschule,Städt. Gem. Grundschule,"Duisburg, GG Breite Str.",Breite Str. 58,47169,Duisburg,250,203403657.0,101709@schule.nrw.de,0,"Duisburg, Stadt",0,"(51.512071729418054, 6.761481367764136)",51.512071729418054,6.761481367764136
240,101710,Grundschule,Bergschule,"Duisburg, GG Berg",Bergstr. 48,47137,Duisburg,257,203441545.0,101710@schule.nrw.de,0,"Duisburg, Stadt",0,"(51.46831210428718, 6.768867750460769)",51.46831210428718,6.768867750460769
241,101722,Grundschule,Städt. Gem. Grundschule,"Duisburg, GG Am See",Am See 22,47279,Duisburg,192,2032837363.0,101722@schule.nrw.de,0,"Duisburg, Stadt",0,"(51.39205152091767, 6.8007402502973475)",51.39205152091767,6.8007402502973475
242,101734,Grundschule,Städtische Gemeinschaftsgrundschule,"Duisburg, GG Wanheim",Am Tollberg 50,47249,Duisburg,202,20373829853.0,101734@schule.nrw.de,0,"Duisburg, Stadt",0,"(51.382342531737756, 6.762194837503175)",51.382342531737756,6.762194837503175
243,101746,Grundschule,Städt. Gem. Grundschule,"Duisburg, GG Albert-Schweitzer-Str.",Albert-Schweitzer-Str. 64,47259,Duisburg,418,203788286.0,101746@schule.nrw.de,0,"Duisburg, Stadt",0,"(51.361399661430106, 6.728083717735544)",51.361399661430106,6.728083717735544
244,101771,Grundschule,Antoniusschule,"Essen, KG Antoniusschule",Im Haferfeld 39,45279,Essen,252,201504828.0,101771@schule.nrw.de,0,"Essen, Stadt",0,"(51.443013015330585, 7.1059761100433665)",51.443013015330585,7.1059761100433665
245,101801,Grundschule,Bischof-von-Ketteler-Schule,"Essen, KG Bischof-von-Ketteler-Schule",Kampstr. 32,45355,Essen,268,201676719.0,101801@schule.nrw.de,0,"Essen, Stadt",0,"(51.4735398, 6.950884076050421)",51.4735398,6.950884076050421
246,101813,Grundschule,Christophorusschule,"Essen, KG Christophorusschule",Meistersingerstr. 2,45307,Essen,209,201598141.0,101813@schule.nrw.de,0,"Essen, Stadt",0,"(51.4648170338863, 7.084269778774493)",51.4648170338863,7.084269778774493
247,101837,Grundschule,Dionysiusschule,"Essen, KG Dionysiusschule",Kraftstr. 8-10,45355,Essen,208,201683661.0,101837@schule.nrw.de,0,"Essen, Stadt",0,"(51.4735398, 6.950884076050421)",51.4735398,6.950884076050421
248,101850,Grundschule,Laurentiusschule,"Essen, KG Laurentiusschule",Laurentiusweg 2,45276,Essen,213,201512330.0,101850@schule.nrw.de,0,"Essen, Stadt",0,"(51.44785559404609, 7.073537600282575)",51.44785559404609,7.073537600282575
249,101886,Grundschule,Nikolausschule,"Essen, KG Nikolaus",Nikolausstr. 24,45141,Essen,238,201297204.0,101886@schule.nrw.de,0,"Essen, Stadt",0,"(51.47450675322485, 7.026432381093199)",51.47450675322485,7.026432381093199
250,101898,Grundschule,Johann-Michael-Sailer-Schule,"Essen, KG Johann-Michael-Sailer-Schule",Immelmannstr. 6-8,45309,Essen,291,201211630.0,101898@schule.nrw.de,0,"Essen, Stadt",0,"(51.47942688336846, 7.066674211743588)",51.47942688336846,7.066674211743588
251,101904,Grundschule,Städt. Gemeinschaftsgrundschule,"Essen, GG Bedingrade/ Schönebeck",Bergheimer Str. 67,45359,Essen,233,2016958031.0,101904@schule.nrw.de,0,"Essen, Stadt",0,"(51.46694240910811, 6.923954529925808)",51.46694240910811,6.923954529925808
252,101916,Grundschule,Astrid Lindgren-Schule,"Essen, GG Astrid Lindgren",Lindkenshofer Weg 51-53,45279,Essen,243,201538570.0,101916@schule.nrw.de,0,"Essen, Stadt",0,"(51.443013015330585, 7.1059761100433665)",51.443013015330585,7.1059761100433665
253,101930,Grundschule,Münsterschule,"Essen, KG Münsterschule",Severinstr. 25,45127,Essen,134,201239420.0,101930@schule.nrw.de,0,"Essen, Stadt",0,"(51.45690699865161, 7.0109475558770535)",51.45690699865161,7.0109475558770535
254,101941,Grundschule,Winfriedschule,"Essen, KG Winfried",Siepenstr. 19,45138,Essen,230,201262008.0,101941@schule.nrw.de,0,"Essen, Stadt",0,"(51.44826357205048, 7.037352287619016)",51.44826357205048,7.037352287619016
255,102003,Grundschule,Eichendorffschule Schönebeck,"Essen, KG (Verb.) Eichendorffschule",Heißener Str. 74,45359,Essen,365,201682255.0,102003@schule.nrw.de,0,"Essen, Stadt",0,"(51.46694240910811, 6.923954529925808)",51.46694240910811,6.923954529925808
256,102015,Grundschule,Schule an der Heinrich-Strunk-Straße,"Essen, GG Heinrich-Strunk-Str.",Heinrich-Strunk-Str. 148,45143,Essen,203,201622738.0,102015@schule.nrw.de,0,"Essen, Stadt",0,"(51.4610689465821, 6.974496337375184)",51.4610689465821,6.974496337375184
257,102027,Grundschule,Georgschule,"Essen, KG Georg",Heisinger Str. 500,45259,Essen,172,201460703.0,102027@schule.nrw.de,0,"Essen, Stadt",0,"(51.40284623381315, 7.063959455328586)",51.40284623381315,7.063959455328586
258,102040,Grundschule,Elisabethschule,"Essen, KG Elisabeth",Hamburger Str. 4a,45145,Essen,186,201761324.0,102040@schule.nrw.de,0,"Essen, Stadt",0,"(51.4464806281113, 6.973404634926038)",51.4464806281113,6.973404634926038
259,102052,Grundschule,Großenbruchschule,"Essen, GG Großenbruch",Großenbruchstr. 25,45326,Essen,205,201313118.0,102052@schule.nrw.de,0,"Essen, Stadt",0,"(51.48614484193166, 7.008988754527164)",51.48614484193166,7.008988754527164
260,102064,Grundschule,Grundschule Nordviertel,"Essen, GG Nordviertel",Beisingstr. 22,45141,Essen,400,2018873600.0,102064@schule.nrw.de,0,"Essen, Stadt",0,"(51.47450675322485, 7.026432381093199)",51.47450675322485,7.026432381093199
261,102076,Grundschule,Altfriedschule,"Essen, KG Altfried",Frintroper Str. 432a,45359,Essen,259,201602141.0,102076@schule.nrw.de,0,"Essen, Stadt",0,"(51.46694240910811, 6.923954529925808)",51.46694240910811,6.923954529925808
262,102088,Grundschule,Zollvereinschule,"Essen, KG Zollvereinschule",Heinrich-Lersch-Str. 40,45327,Essen,329,201302248.0,102088@schule.nrw.de,0,"Essen, Stadt",0,"(51.497123808208855, 7.047746056332677)",51.497123808208855,7.047746056332677
263,102106,Grundschule,Schule Gerschede,"Essen, GG Gerschede",Ackerstr. 107,45357,Essen,247,201608044.0,102106@schule.nrw.de,0,"Essen, Stadt",0,"(51.48386786482549, 6.932707209283389)",51.48386786482549,6.932707209283389
264,102118,Grundschule,Schule Am Krausen Bäumchen,"Essen, KG Am Krausen Bäumchen",Elbestr. 20-22,45136,Essen,204,201254410.0,102118@schule.nrw.de,0,"Essen, Stadt",0,"(51.436822596810785, 7.0408333381414145)",51.436822596810785,7.0408333381414145
265,102120,Grundschule,Josefschule/ Horst,"Essen, KG Josef/ Horst",Dahlhauser Str. 144,45279,Essen,214,201530483.0,102120@schule.nrw.de,0,"Essen, Stadt",0,"(51.443013015330585, 7.1059761100433665)",51.443013015330585,7.1059761100433665
266,102143,Grundschule,Josefschule/ Kupferdreh,"Essen, KG Josef/ Kupferdreh",Byfanger Str. 20,45257,Essen,244,201481654.0,102143@schule.nrw.de,0,"Essen, Stadt",0,"(51.39074670820275, 7.088403861632334)",51.39074670820275,7.088403861632334
267,102155,Grundschule,Bückmannshofschule,"Essen, GG Bückmannshofschule",Bückmannshof 16,45326,Essen,237,201354485.0,102155@schule.nrw.de,0,"Essen, Stadt",0,"(51.48614484193166, 7.008988754527164)",51.48614484193166,7.008988754527164
268,102179,Grundschule,Cosmas u. Damian Schule,"Essen, KG Cosmas u. Damian",Berliner Str. 63,45145,Essen,211,201757123.0,102179@schule.nrw.de,0,"Essen, Stadt",0,"(51.4464806281113, 6.973404634926038)",51.4464806281113,6.973404634926038
269,102180,Grundschule,Bardelebenschule,"Essen, KG Bardeleben",Bardelebenstr. 5,45147,Essen,219,201742187.0,102180@schule.nrw.de,0,"Essen, Stadt",0,"(51.44002599184473, 6.9864541229787696)",51.44002599184473,6.9864541229787696
270,102210,Grundschule,Hinseler Schule,"Essen, GG Hinseler Schule",Treibweg 40-42,45277,Essen,208,201584740.0,102210@schule.nrw.de,0,"Essen, Stadt",0,"(51.425219156059605, 7.080723485311699)",51.425219156059605,7.080723485311699
271,102234,Grundschule,Schlossschule,"Essen, GG Schlossschule",Schloßstr. 192,45355,Essen,193,201682619.0,102234@schule.nrw.de,0,"Essen, Stadt",0,"(51.4735398, 6.950884076050421)",51.4735398,6.950884076050421
272,102246,Grundschule,Schillerschule,"Essen, GG Schiller",Immelmannstr. 6-8,45309,Essen,195,201211122.0,102246@schule.nrw.de,0,"Essen, Stadt",0,"(51.47942688336846, 7.066674211743588)",51.47942688336846,7.066674211743588
273,102258,Grundschule,Bergmühlenschule,"Essen, GG Bergmühlen",Roggenstr. 5,45356,Essen,201,201661384.0,102258@schule.nrw.de,0,"Essen, Stadt",0,"(51.48428354915583, 6.974844614976792)",51.48428354915583,6.974844614976792
274,102260,Grundschule,Schule an der Rahmstraße,"Essen, GG an der Rahmstraße",Rahmstr. 174,45326,Essen,371,201354517.0,102260@schule.nrw.de,0,"Essen, Stadt",0,"(51.48614484193166, 7.008988754527164)",51.48614484193166,7.008988754527164
275,102271,Grundschule,Meisenburgschule,"Essen, GG Meisenburg",Meisenburgstr. 57,45133,Essen,210,201413277.0,102271@schule.nrw.de,0,"Essen, Stadt",0,"(51.41372212224751, 6.992377642869491)",51.41372212224751,6.992377642869491
276,102283,Grundschule,Bonifaciusschule,"Essen, GG Bonifacius",Kellinghausstr. 2,45309,Essen,225,201552302.0,102283@schule.nrw.de,0,"Essen, Stadt",0,"(51.47942688336846, 7.066674211743588)",51.47942688336846,7.066674211743588
277,102295,Grundschule,Kantschule,"Essen, GG Kantschule",Büchelsloh 33,45327,Essen,289,201301310.0,102295@schule.nrw.de,0,"Essen, Stadt",0,"(51.497123808208855, 7.047746056332677)",51.497123808208855,7.047746056332677
278,102301,Grundschule,Schule an der Jacobsallee,"Essen, GG Jacobsallee",Jacobsallee 7,45239,Essen,176,201403449.0,102301@schule.nrw.de,0,"Essen, Stadt",0,"(51.38635161699845, 7.014982501556333)",51.38635161699845,7.014982501556333
279,102362,Grundschule,Bodelschwinghschule,"Essen, GG Bodelschwinghschule",Heinrich-Strunk-Str. 25,45143,Essen,217,201621855.0,102362@schule.nrw.de,0,"Essen, Stadt",0,"(51.4610689465821, 6.974496337375184)",51.4610689465821,6.974496337375184
280,102386,Grundschule,Stadthafenschule,"Essen, GG Stadthafen",Forststr. 12,45356,Essen,265,201344138.0,102386@schule.nrw.de,0,"Essen, Stadt",0,"(51.48428354915583, 6.974844614976792)",51.48428354915583,6.974844614976792
281,102398,Grundschule,Theodor-Heuss-Schule,"Essen, EG Theodor-Heuss",Elbestr. 43,45136,Essen,205,201255425.0,102398@schule.nrw.de,0,"Essen, Stadt",0,"(51.436822596810785, 7.0408333381414145)",51.436822596810785,7.0408333381414145
282,102404,Grundschule,Dürerschule,"Essen, GG Dürer",Wallstr. 2,45355,Essen,183,201682678.0,102404@schule.nrw.de,0,"Essen, Stadt",0,"(51.4735398, 6.950884076050421)",51.4735398,6.950884076050421
283,102416,Grundschule,Käthe-Kollwitz-Schule,"Essen, EG Käthe-Kollwitz-Schule",Christinenstr. 4,45131,Essen,331,201775424.0,102416@schule.nrw.de,0,"Essen, Stadt",0,"(51.430019681146774, 7.005262691903054)",51.430019681146774,7.005262691903054
284,102430,Grundschule,Fischlaker Schule,"Essen, GG Fischlaker Schule",Bernhardstr. 25,45239,Essen,156,201402008.0,102430@schule.nrw.de,0,"Essen, Stadt",0,"(51.38635161699845, 7.014982501556333)",51.38635161699845,7.014982501556333
285,102453,Grundschule,Peter-Ustinov-Schule,"Essen, GG Peter-Ustinov-Schule",Auf der Reihe 106,45327,Essen,203,201211697.0,102453@schule.nrw.de,0,"Essen, Stadt",0,"(51.497123808208855, 7.047746056332677)",51.497123808208855,7.047746056332677
286,102465,Grundschule,Höltingschule,"Essen, GG Hölting",Zechenstr. 8-10,45355,Essen,217,201661629.0,102465@schule.nrw.de,0,"Essen, Stadt",0,"(51.4735398, 6.950884076050421)",51.4735398,6.950884076050421
287,102489,Grundschule,Schule an der Waldlehne,"Essen, GG an der Waldlehne",Waldlehne 111,45149,Essen,307,201711768.0,102489@schule.nrw.de,0,"Essen, Stadt",0,"(51.423944590165, 6.965505459374533)",51.423944590165,6.965505459374533
288,102490,Grundschule,Andreasschule,"Essen, KG Andreasschule",Von-Einem-Str. 56,45130,Essen,309,201790316.0,102490@schule.nrw.de,0,"Essen, Stadt",0,"(51.43837960230467, 7.009099068550982)",51.43837960230467,7.009099068550982
289,102507,Grundschule,Schule an der Viktoriastraße,"Essen, GG Viktoriastr.",Viktoriastr. 32,45327,Essen,320,201302213.0,102507@schule.nrw.de,0,"Essen, Stadt",0,"(51.497123808208855, 7.047746056332677)",51.497123808208855,7.047746056332677
290,102519,Grundschule,Tuttmannschule,"Essen, GG Tuttmann",Twentmannstr. 2,45141,Essen,286,201211534.0,102519@schule.nrw.de,0,"Essen, Stadt",0,"(51.47450675322485, 7.026432381093199)",51.47450675322485,7.026432381093199
291,102520,Grundschule,Schule an der Schwanenbuschstraße,"Essen, GG Schwanenbuschstr.",Schwanenbuschstr. 161,45138,Essen,197,201285973.0,102520@schule.nrw.de,0,"Essen, Stadt",0,"(51.44826357205048, 7.037352287619016)",51.44826357205048,7.037352287619016
292,102532,Grundschule,Carl-Funke-Schule,"Essen, GG Carl-Funke",Baderweg 24,45259,Essen,247,201461830.0,102532@schule.nrw.de,0,"Essen, Stadt",0,"(51.40284623381315, 7.063959455328586)",51.40284623381315,7.063959455328586
293,102544,Grundschule,Cranachschule,"Essen, GG Cranach",Rubensstr. 29,45147,Essen,384,201740663.0,102544@schule.nrw.de,0,"Essen, Stadt",0,"(51.44002599184473, 6.9864541229787696)",51.44002599184473,6.9864541229787696
294,102556,Grundschule,Schule am Reuenberg,"Essen, GG am Reuenberg",Reuenberg 163,45357,Essen,193,2016958004.0,102556@schule.nrw.de,0,"Essen, Stadt",0,"(51.48386786482549, 6.932707209283389)",51.48386786482549,6.932707209283389
295,102570,Grundschule,Herderschule,"Essen, GG Herder",Postreitweg 76,45145,Essen,202,201756322.0,102570@schule.nrw.de,0,"Essen, Stadt",0,"(51.4464806281113, 6.973404634926038)",51.4464806281113,6.973404634926038
296,102600,Grundschule,Ardeyschule,"Essen, GG Ardey",Oberstr. 51,45134,Essen,196,201440514.0,102600@schule.nrw.de,0,"Essen, Stadt",0,"(51.4226138239324, 7.037207165568742)",51.4226138239324,7.037207165568742
297,102623,Grundschule,Schule am Morungenweg,"Essen, GG Morungenweg",Morungenweg 1,45279,Essen,320,201532358.0,102623@schule.nrw.de,0,"Essen, Stadt",0,"(51.443013015330585, 7.1059761100433665)",51.443013015330585,7.1059761100433665
298,102635,Grundschule,Maria-Kunigunda-Schule,"Essen, GG Maria-Kunigunda",Timpestr. 52,45329,Essen,328,201380149.0,102635@schule.nrw.de,0,"Essen, Stadt",0,"(51.51003929856118, 7.0101320775841875)",51.51003929856118,7.0101320775841875
299,102647,Grundschule,Montessorischule am Lönsberg,"Essen, GG Montessorischule am Lönsberg",Lönsberg 44,45136,Essen,206,201511142.0,102647@schule.nrw.de,0,"Essen, Stadt",0,"(51.436822596810785, 7.0408333381414145)",51.436822596810785,7.0408333381414145
300,102659,Grundschule,Karlschule,"Essen, GG Karlschule",Wilhelm-Nieswandt-Allee 85,45326,Essen,217,201340116.0,102659@schule.nrw.de,0,"Essen, Stadt",0,"(51.48614484193166, 7.008988754527164)",51.48614484193166,7.008988754527164
301,102660,Grundschule,Stiftsschule,"Essen, GG Stifts",Amselstr. 30,45134,Essen,201,201440229.0,102660@schule.nrw.de,0,"Essen, Stadt",0,"(51.4226138239324, 7.037207165568742)",51.4226138239324,7.037207165568742
302,102672,Grundschule,Neuessener Schule,"Essen, GG Neuessener",Altenessener Str. 491,45329,Essen,245,201344528.0,102672@schule.nrw.de,0,"Essen, Stadt",0,"(51.51003929856118, 7.0101320775841875)",51.51003929856118,7.0101320775841875
303,102696,Grundschule,Leither Schule,"Essen, GG Leither",Korumhöhe 11,45307,Essen,277,201554341.0,102696@schule.nrw.de,0,"Essen, Stadt",0,"(51.4648170338863, 7.084269778774493)",51.4648170338863,7.084269778774493
304,102702,Grundschule,Friedenschule,"Essen, GG Frieden",Schinkelstr. 2,45138,Essen,218,201286240.0,102702@schule.nrw.de,0,"Essen, Stadt",0,"(51.44826357205048, 7.037352287619016)",51.44826357205048,7.037352287619016
305,102714,Grundschule,Ludgerusschule,"Essen, GG Ludgerusschule",Kellerstr. 86,45239,Essen,167,201493317.0,102714@schule.nrw.de,0,"Essen, Stadt",0,"(51.38635161699845, 7.014982501556333)",51.38635161699845,7.014982501556333
306,102726,Grundschule,Heckerschule,"Essen, GG Heckerschule",Urbachstr. 21,45239,Essen,191,201408332.0,102726@schule.nrw.de,0,"Essen, Stadt",0,"(51.38635161699845, 7.014982501556333)",51.38635161699845,7.014982501556333
307,102738,Grundschule,Joachimschule,"Essen, GG Joachimschule",Joachimstr. 7a,45307,Essen,226,201550804.0,102738@schule.nrw.de,0,"Essen, Stadt",0,"(51.4648170338863, 7.084269778774493)",51.4648170338863,7.084269778774493
308,102740,Grundschule,Schule Im Steeler Rott,"Essen, GG Im Steeler Rott",Fürstinstr. 1,45276,Essen,194,201593080.0,102740@schule.nrw.de,0,"Essen, Stadt",0,"(51.44785559404609, 7.073537600282575)",51.44785559404609,7.073537600282575
309,102751,Grundschule,Hüttmannschule,"Essen, GG Hüttmann",Hüttmannstr. 86,45143,Essen,404,201621945.0,102751@schule.nrw.de,0,"Essen, Stadt",0,"(51.4610689465821, 6.974496337375184)",51.4610689465821,6.974496337375184
310,102763,Grundschule,Hövelschule,"Essen, GG Hövelschule",Hövelstr. 49-51,45326,Essen,319,201313489.0,102763@schule.nrw.de,0,"Essen, Stadt",0,"(51.48614484193166, 7.008988754527164)",51.48614484193166,7.008988754527164
311,102775,Grundschule,Adolf-Reichwein-Schule,"Essen, GG Adolf-Reichwein-Schule",Kuhlhoffstr. 1,45329,Essen,218,201341245.0,102775@schule.nrw.de,0,"Essen, Stadt",0,"(51.51003929856118, 7.0101320775841875)",51.51003929856118,7.0101320775841875
312,102787,Grundschule,Schule an der Heinickestr.,"Essen, GG Heinickestr.",Heinickestr. 8,45128,Essen,209,2018840680.0,102787@schule.nrw.de,0,"Essen, Stadt",0,"(51.444649183142445, 7.012069839310838)",51.444649183142445,7.012069839310838
313,102799,Grundschule,Graf-Spee-Schule,"Essen, GG Graf-Spee-Schule",Graf-Spee-Str. 23,45133,Essen,192,201422505.0,102799@schule.nrw.de,0,"Essen, Stadt",0,"(51.41372212224751, 6.992377642869491)",51.41372212224751,6.992377642869491
314,102805,Grundschule,Gervinusschule,"Essen, GG Gervinus",Gervinusstr. 28,45144,Essen,320,201756968.0,102805@schule.nrw.de,0,"Essen, Stadt",0,"(51.451334184275616, 6.968846829045667)",51.451334184275616,6.968846829045667
315,102829,Grundschule,Hinsbeckschule,"Essen, GG Hinsbeckschule",Schwermannstr. 9,45257,Essen,243,201482761.0,102829@schule.nrw.de,0,"Essen, Stadt",0,"(51.39074670820275, 7.088403861632334)",51.39074670820275,7.088403861632334
316,102830,Grundschule,Berliner Schule,"Essen, GG Berliner Schule",Berliner Str. 57,45145,Essen,172,201756342.0,102830@schule.nrw.de,0,"Essen, Stadt",0,"(51.4464806281113, 6.973404634926038)",51.4464806281113,6.973404634926038
317,102842,Grundschule,Kraienbruchschule,"Essen, GG Kraienbruchschule",Kraienbruch 79,45357,Essen,205,201666612.0,102842@schule.nrw.de,0,"Essen, Stadt",0,"(51.48386786482549, 6.932707209283389)",51.48386786482549,6.932707209283389
318,102866,Grundschule,Schule im Bergmannsfeld,"Essen, GG im Bergmannsfeld",Erasmusstr. 44-46,45279,Essen,278,201534224.0,102866@schule.nrw.de,0,"Essen, Stadt",0,"(51.443013015330585, 7.1059761100433665)",51.443013015330585,7.1059761100433665
319,102878,Grundschule,Grundschule Burgaltendorf,"Essen, GG Burgaltendorf",Alte Hauptstr. 50,45289,Essen,277,2015717440.0,102878@schule.nrw.de,0,"Essen, Stadt",0,"(51.4161649341558, 7.111311753117521)",51.4161649341558,7.111311753117521
320,102880,Grundschule,Schule an Haus Rath,"Krefeld, GG Schule an Haus Rath",Neukirchener Str. 1-3,47829,Krefeld,157,2151472501.0,102880@schule.nrw.de,0,"Krefeld, Stadt",0,"(51.360075087362446, 6.635047107395131)",51.360075087362446,6.635047107395131
321,102891,Grundschule,Edith-Stein-Schule,"Krefeld, KG Edith-Stein-Schule",Traarer Str. 105,47829,Krefeld,188,2151474236.0,102891@schule.nrw.de,0,"Krefeld, Stadt",0,"(51.360075087362446, 6.635047107395131)",51.360075087362446,6.635047107395131
322,102908,Grundschule,Sollbrüggenschule,"Krefeld, KG Sollbrüggenschule",Sollbrüggenstr. 81,47800,Krefeld,324,2151592625.0,102908@schule.nrw.de,0,"Krefeld, Stadt",0,"(51.34604272037793, 6.602901361965979)",51.34604272037793,6.602901361965979
323,102921,Grundschule,Grundschule Königshof,"Krefeld, KG Königshof",Oberbruchstr. 87,47807,Krefeld,268,2151397108.0,102921@schule.nrw.de,0,"Krefeld, Stadt",0,"(51.30482462147121, 6.584554950294589)",51.30482462147121,6.584554950294589
324,102945,Grundschule,Josefschule,"Krefeld, KG Josefschule",An der Josefkirche 1-2,47798,Krefeld,353,2151772065.0,102945@schule.nrw.de,0,"Krefeld, Stadt",0,"(51.33178588202923, 6.558523443055258)",51.33178588202923,6.558523443055258
325,102957,Grundschule,St. Michael Schule,"Krefeld, GG St. Michael Schule",Gießerpfad 2-10,47804,Krefeld,218,2151711563.0,102957@schule.nrw.de,0,"Krefeld, Stadt",0,"(51.315254470440706, 6.525542039629403)",51.315254470440706,6.525542039629403
326,102970,Grundschule,Schönwasserschule,"Krefeld, GG Schönwasserschule",Thielenstr. 40,47809,Krefeld,205,2151540731.0,102970@schule.nrw.de,0,"Krefeld, Stadt",0,"(51.32984118818697, 6.6273473361075474)",51.32984118818697,6.6273473361075474
327,102982,Grundschule,Johansenschule,"Krefeld, GG Johansenschule",Kohlplatzweg 25,47809,Krefeld,193,2151571288.0,102982@schule.nrw.de,0,"Krefeld, Stadt",0,"(51.32984118818697, 6.6273473361075474)",51.32984118818697,6.6273473361075474
328,102994,Grundschule,Jahnschule,"Krefeld, GG Jahnschule",Girmesdyk 17-19,47803,Krefeld,308,2151756168.0,102994@schule.nrw.de,0,"Krefeld, Stadt",0,"(51.346709710352094, 6.551201986859295)",51.346709710352094,6.551201986859295
329,103020,Grundschule,Mosaikschule,"Krefeld, GG (Verb.) Mosaikschule",Hofstr. 45,47798,Krefeld,441,215126167.0,103020@schule.nrw.de,0,"Krefeld, Stadt",0,"(51.33178588202923, 6.558523443055258)",51.33178588202923,6.558523443055258
330,103068,Grundschule,Grundschule am Stadtpark Fischeln,"Krefeld, GG am Stadtpark Fischeln",Wimmersweg 21,47807,Krefeld,470,2151300623.0,103068@schule.nrw.de,1,"Krefeld, Stadt",0,"(51.30482462147121, 6.584554950294589)",51.30482462147121,6.584554950294589
331,103070,Grundschule,Mariannenschule,"Krefeld, GG Mariannenschule",Mariannenstr. 29,47799,Krefeld,297,215123381.0,103070@schule.nrw.de,0,"Krefeld, Stadt",0,"(51.33581325865105, 6.574962134193867)",51.33581325865105,6.574962134193867
332,103081,Grundschule,Städt. Gem. Grundschule,"Krefeld, GG Buscher Holzweg",Buscher Holzweg 60-62,47802,Krefeld,220,2151562080.0,103081@schule.nrw.de,0,"Krefeld, Stadt",0,"(51.37244975210251, 6.586770607664404)",51.37244975210251,6.586770607664404
333,103100,Grundschule,Heinrichsschule,"Krefeld, GG Heinrich",Körnerstr. 17,47829,Krefeld,135,2151474111.0,103100@schule.nrw.de,0,"Krefeld, Stadt",0,"(51.360075087362446, 6.635047107395131)",51.360075087362446,6.635047107395131
334,103111,Grundschule,Südschule,"Krefeld, GG Süd",Kölner Str. 667,47807,Krefeld,323,2151301470.0,103111@schule.nrw.de,0,"Krefeld, Stadt",0,"(51.30482462147121, 6.584554950294589)",51.30482462147121,6.584554950294589
335,103123,Grundschule,Paul Gerhardt Schule,"Krefeld, GG Paul Gerhardt",Joseph-Görres-Str. 20,47829,Krefeld,195,2151481977.0,103123@schule.nrw.de,0,"Krefeld, Stadt",0,"(51.360075087362446, 6.635047107395131)",51.360075087362446,6.635047107395131
336,103135,Grundschule,Geschwister Scholl Schule,"Krefeld, GG Geschwister Scholl",Bökendonk 48,47809,Krefeld,277,2151540787.0,103135@schule.nrw.de,0,"Krefeld, Stadt",0,"(51.32984118818697, 6.6273473361075474)",51.32984118818697,6.6273473361075474
337,103147,Grundschule,Pestalozzi Schule,"Krefeld, GG Pestalozzi Schule",Hülser Str. 449,47803,Krefeld,207,2151754107.0,103147@schule.nrw.de,0,"Krefeld, Stadt",0,"(51.346709710352094, 6.551201986859295)",51.346709710352094,6.551201986859295
338,103159,Grundschule,Lindenschule,"Krefeld, GG Lindenschule",Gießerpfad 2-10,47804,Krefeld,261,2151711622.0,103159@schule.nrw.de,0,"Krefeld, Stadt",0,"(51.315254470440706, 6.525542039629403)",51.315254470440706,6.525542039629403
339,103160,Grundschule,Gebrüder-Grimm-Schule,"Krefeld, GG Gebrüder-Grimm",Freiligrathstr. 47,47799,Krefeld,214,215169781.0,103160@schule.nrw.de,0,"Krefeld, Stadt",0,"(51.33581325865105, 6.574962134193867)",51.33581325865105,6.574962134193867
340,103172,Grundschule,Grotenburg Schule,"Krefeld, GG Grotenburg",Eichendorffstr. 21,47800,Krefeld,347,2151591365.0,103172@schule.nrw.de,0,"Krefeld, Stadt",0,"(51.34604272037793, 6.602901361965979)",51.34604272037793,6.602901361965979
341,103184,Grundschule,Buchenschule,"Krefeld, GG Buchenschule",Buchenstr. 28,47805,Krefeld,260,2151399164.0,103184@schule.nrw.de,0,"Krefeld, Stadt",0,"(51.32016118083059, 6.567994810809996)",51.32016118083059,6.567994810809996
342,103196,Grundschule,Bismarckschule,"Krefeld, GG Bismarckschule",Bismarckstr. 67,47799,Krefeld,316,2151596518.0,103196@schule.nrw.de,0,"Krefeld, Stadt",0,"(51.33581325865105, 6.574962134193867)",51.33581325865105,6.574962134193867
343,103202,Grundschule,Forstwaldschule,"Krefeld, GG Forstwaldschule",Bellenweg 50,47804,Krefeld,134,2151312603.0,103202@schule.nrw.de,0,"Krefeld, Stadt",0,"(51.315254470440706, 6.525542039629403)",51.315254470440706,6.525542039629403
344,103214,Grundschule,Regenbogenschule,"Leverkusen, GG Regenbogen",Scharnhorststr. 5,51377,Leverkusen,260,2148700900.0,103214@schule.nrw.de,0,"Leverkusen, Stadt",0,"(51.045152254518975, 7.052660837728893)",51.045152254518975,7.052660837728893
345,103226,Grundschule,Kerschensteinerschule,"Leverkusen, GG Kerschensteiner",Kerschensteinerstr. 2,51373,Leverkusen,353,214868630.0,103226@schule.nrw.de,0,"Leverkusen, Stadt",0,"(51.03643948393301, 6.9932046516048425)",51.03643948393301,6.9932046516048425
346,103240,Grundschule,Astrid-Lindgren-Schule,"Leverkusen, GG Astrid-Lindgren",Brandenburger Str. 26,51377,Leverkusen,230,2148900810.0,103240@schule.nrw.de,0,"Leverkusen, Stadt",0,"(51.045152254518975, 7.052660837728893)",51.045152254518975,7.052660837728893
347,103251,Grundschule,Waldschule,"Leverkusen, GG Waldschule",Carl-Maria-von-Weber-Platz 3,51375,Leverkusen,300,21456564.0,103251@schule.nrw.de,0,"Leverkusen, Stadt",0,"(51.03274266977414, 7.052345816172513)",51.03274266977414,7.052345816172513
348,103263,Grundschule,Kath. Grundschule In der Wasserkuhl,"Leverkusen, KG In der Wasserkuhl",In der Wasserkuhl 3,51377,Leverkusen,216,214310820.0,103263@schule.nrw.de,0,"Leverkusen, Stadt",0,"(51.045152254518975, 7.052660837728893)",51.045152254518975,7.052660837728893
349,103287,Grundschule,"KGS Möwenschule, Städt. katholische","Leverkusen, KG Möwenschule",Dönhoffstr. 94,51373,Leverkusen,151,214310870.0,103287@schule.nrw.de,0,"Leverkusen, Stadt",0,"(51.03643948393301, 6.9932046516048425)",51.03643948393301,6.9932046516048425
350,103299,Grundschule,Thomas-Morus-Schule,"Leverkusen, KG Thomas-Morus-Schule",Johannes-Dott-Str. 1,51375,Leverkusen,275,21455431.0,103299@schule.nrw.de,0,"Leverkusen, Stadt",0,"(51.03274266977414, 7.052345816172513)",51.03274266977414,7.052345816172513
351,103305,Grundschule,Städt. Kath. Grundschule,"Leverkusen, KG Burgweg",Burgweg 38,51371,Leverkusen,319,214310800.0,103305@schule.nrw.de,0,"Leverkusen, Stadt",0,"(51.05702510942749, 6.946612662697298)",51.05702510942749,6.946612662697298
352,103317,Grundschule,Gezelinschule,"Leverkusen, KG Gezelin",Bergische Landstr. 101,51375,Leverkusen,216,21453676.0,103317@schule.nrw.de,0,"Leverkusen, Stadt",0,"(51.03274266977414, 7.052345816172513)",51.03274266977414,7.052345816172513
353,103330,Grundschule,Städt. Gem. Grundschule,"Leverkusen, GG Heinrich-Lübke-Str.",Heinrich-Lübke-Str. 140,51375,Leverkusen,250,2148501840.0,103330@schule.nrw.de,0,"Leverkusen, Stadt",0,"(51.03274266977414, 7.052345816172513)",51.03274266977414,7.052345816172513
354,103342,Grundschule,Städt. Gem. Grundschule,"Leverkusen, GG Morsbroicher Str.",Morsbroicher Str. 14,51375,Leverkusen,247,214310920.0,103342@schule.nrw.de,0,"Leverkusen, Stadt",0,"(51.03274266977414, 7.052345816172513)",51.03274266977414,7.052345816172513
355,103354,Grundschule,Städt. Gem. Grundschule,"Leverkusen, GG Dönhoffstr.",Dönhoffstr. 94,51373,Leverkusen,186,214310870.0,103354@schule.nrw.de,0,"Leverkusen, Stadt",0,"(51.03643948393301, 6.9932046516048425)",51.03643948393301,6.9932046516048425
356,103366,Grundschule,Städt. Gem. Grundschule,"Leverkusen, GG Im Steinfeld",Im Steinfeld 45,51371,Leverkusen,288,21465603.0,103366@schule.nrw.de,0,"Leverkusen, Stadt",0,"(51.05702510942749, 6.946612662697298)",51.05702510942749,6.946612662697298
357,103378,Grundschule,Theodor-Fontane-Schule,"Leverkusen, GG Theodor-Fontane",Fontanestr. 2,51373,Leverkusen,219,2143101050.0,103378@schule.nrw.de,0,"Leverkusen, Stadt",0,"(51.03643948393301, 6.9932046516048425)",51.03643948393301,6.9932046516048425
358,103380,Grundschule,Erich-Klausener-Schule,"Leverkusen, GG Erich-Klausener-Schule",Brüder-Bonhoeffer-Str. 1,51377,Leverkusen,205,2143101020.0,103380@schule.nrw.de,0,"Leverkusen, Stadt",0,"(51.045152254518975, 7.052660837728893)",51.045152254518975,7.052660837728893
359,103410,Grundschule,Städt. Gem. Grundschule Neuwerk,"Mönchengladbach, GG Neuwerk",Nespelerstr. 40,41066,Mönchengladbach,193,2161662695.0,103410@schule.nrw.de,0,"Mönchengladbach, Stadt",0,"(51.21931095, 6.4688887701570685)",51.21931095,6.4688887701570685
360,103421,Grundschule,Brückenschule,"Mönchengladbach,KG (Verb.) Brückenschule",Von-Groote-Str. 145,41066,Mönchengladbach,336,216163498.0,103421@schule.nrw.de,0,"Mönchengladbach, Stadt",0,"(51.21931095, 6.4688887701570685)",51.21931095,6.4688887701570685
361,103433,Grundschule,Städt. Kath. Grundschule,"Mönchengladbach, KG Zeppelinstraße",Neuwerker Str. 35,41065,Mönchengladbach,193,2161603173.0,103433@schule.nrw.de,0,"Mönchengladbach, Stadt",0,"(51.19482925, 6.469061545770222)",51.19482925,6.469061545770222
362,103445,Grundschule,Gemeinschaftsgrundschule Hardt,"Mönchengladbach, GG Hardt",Vossenbäumchen 50,41169,Mönchengladbach,247,2161559988.0,103445@schule.nrw.de,0,"Mönchengladbach, Stadt",0,"(51.2054944, 6.348310117798709)",51.2054944,6.348310117798709
363,103500,Grundschule,Städt. Kath. Grundschule Ohler,"Mönchengladbach, KG Ohler",Konradstr. 72-74,41069,Mönchengladbach,214,2161541890.0,103500@schule.nrw.de,0,"Mönchengladbach, Stadt",0,"(51.18173875, 6.398217160576401)",51.18173875,6.398217160576401
364,103512,Grundschule,Städt. Kath. Grundschule Uedding,"Mönchengladbach, KG Uedding",Weiersweg 6,41065,Mönchengladbach,160,2161602893.0,103512@schule.nrw.de,0,"Mönchengladbach, Stadt",0,"(51.19482925, 6.469061545770222)",51.19482925,6.469061545770222
365,103524,Grundschule,Städt. Kath. Grundschule Venn,"Mönchengladbach, KG (Verb.) Venn",Höfgenweg 40,41068,Mönchengladbach,411,2161406490.0,103524@schule.nrw.de,0,"Mönchengladbach, Stadt",0,"(51.2022937, 6.39134959502092)",51.2022937,6.39134959502092
366,103536,Grundschule,Will-Sommer-Grundschule,"Mönchengladbach, KG (Verb.) Will-Sommer",Geusenstr. 15,41179,Mönchengladbach,414,2161584662.0,103536@schule.nrw.de,0,"Mönchengladbach, Stadt",0,"(51.1560082, 6.353389969714)",51.1560082,6.353389969714
367,103561,Grundschule,Anton-Heinen-Schule,"Mönchengladbach, KG Anton-Heinen",Bleichstr. 9,41061,Mönchengladbach,158,2161175080.0,103561@schule.nrw.de,0,"Mönchengladbach, Stadt",0,"(51.1943408, 6.433352978493501)",51.1943408,6.433352978493501
368,103573,Grundschule,Carl-Sonnenschein-Schule,"Mönchengladbach, GG Carl-Sonnenschein",Luisenstr. 123,41061,Mönchengladbach,192,2161832603.0,103573@schule.nrw.de,0,"Mönchengladbach, Stadt",0,"(51.1943408, 6.433352978493501)",51.1943408,6.433352978493501
369,103627,Grundschule,Städt. Kath. Grundschule Untereicken,"Mönchengladbach, KG Untereicken",Eickener Str. 311,41063,Mönchengladbach,298,216126232.0,103627@schule.nrw.de,0,"Mönchengladbach, Stadt",0,"(51.2122746, 6.424841561746819)",51.2122746,6.424841561746819
370,103639,Grundschule,Franz-Wamich-Schule,"Mönchengladbach, GG Franz-Wamich",Buscherstr. 52,41065,Mönchengladbach,200,216114445.0,103639@schule.nrw.de,0,"Mönchengladbach, Stadt",0,"(51.19482925, 6.469061545770222)",51.19482925,6.469061545770222
371,103652,Grundschule,Annaschule,"Mönchengladbach, KG Anna",Annakirchstr. 56,41063,Mönchengladbach,233,2161897088.0,103652@schule.nrw.de,0,"Mönchengladbach, Stadt",0,"(51.2122746, 6.424841561746819)",51.2122746,6.424841561746819
372,103676,Grundschule,Städt. Gem. Grundschule Pesch,"Mönchengladbach, GG Pesch",Charlottenstr. 15,41065,Mönchengladbach,287,216142423.0,103676@schule.nrw.de,0,"Mönchengladbach, Stadt",0,"(51.19482925, 6.469061545770222)",51.19482925,6.469061545770222
373,103690,Grundschule,Städt. Kath. Grundschule Holt,"Mönchengladbach, KG (Verb.) Holt",Engelsholt 56,41069,Mönchengladbach,371,2161540951.0,103690@schule.nrw.de,0,"Mönchengladbach, Stadt",0,"(51.18173875, 6.398217160576401)",51.18173875,6.398217160576401
374,103720,Grundschule,Städt. Gem. Grundschule Schulstraße,"Mönchengladbach, GG Schulstr.",Schulstr. 15,41065,Mönchengladbach,295,216143915.0,103720@schule.nrw.de,0,"Mönchengladbach, Stadt",0,"(51.19482925, 6.469061545770222)",51.19482925,6.469061545770222
375,103731,Grundschule,Gemeinschaftsgrundschule Eicken,"Mönchengladbach, GG Eicken",Regentenstr. 87a,41061,Mönchengladbach,190,216126170.0,103731@schule.nrw.de,0,"Mönchengladbach, Stadt",0,"(51.1943408, 6.433352978493501)",51.1943408,6.433352978493501
376,103755,Grundschule,Vitusschule Gemeinschaftsgrundschule,"Mönchengladbach, GG (Verb.) Vitusschule",Lochnerallee 33,41063,Mönchengladbach,447,2161894803.0,103755@schule.nrw.de,0,"Mönchengladbach, Stadt",0,"(51.2122746, 6.424841561746819)",51.2122746,6.424841561746819
377,103780,Grundschule,Städt. Gem. Grundschule,"Mülheim an der Ruhr, GG Am Sunderplatz",Sunderweg 90,45472,Mülheim an der Ruhr,240,208496704.0,103780@schule.nrw.de,0,"Mülheim an der Ruhr, Stadt",0,"(51.43295307473313, 6.935159395206518)",51.43295307473313,6.935159395206518
378,103809,Grundschule,Schildbergschule,"Mülheim an der Ruhr, KG Schildbergschule",Schildberg 55,45475,Mülheim an der Ruhr,317,208995951.0,103809@schule.nrw.de,0,"Mülheim an der Ruhr, Stadt",0,"(51.45866072776051, 6.897407586272456)",51.45866072776051,6.897407586272456
379,103822,Grundschule,Städt. Gem. Grundschule,"Mülheim an der Ruhr, GG Filchnerstraße",Filchnerstr. 21,45472,Mülheim an der Ruhr,273,208498449.0,103822@schule.nrw.de,0,"Mülheim an der Ruhr, Stadt",0,"(51.43295307473313, 6.935159395206518)",51.43295307473313,6.935159395206518
380,103834,Grundschule,Städt. Gem. Grundschule,"Mülheim an der Ruhr, GG am Oemberg",Elsenborner Weg 10-12,45481,Mülheim an der Ruhr,350,208482497.0,103834@schule.nrw.de,0,"Mülheim an der Ruhr, Stadt",0,"(51.39576618032136, 6.8659553463695655)",51.39576618032136,6.8659553463695655
381,103846,Grundschule,Städt. Gem. Grundschule,"Mülheim an der Ruhr,GG am Dichterviertel",Bruchstr. 85,45468,Mülheim an der Ruhr,184,208448313.0,103846@schule.nrw.de,0,"Mülheim an der Ruhr, Stadt",0,"(51.42853781230084, 6.886566365343075)",51.42853781230084,6.886566365343075
382,103858,Grundschule,Barbaraschule,"Mülheim an der Ruhr, GG Barbaraschule",Barbarastr. 30,45475,Mülheim an der Ruhr,219,2089957171.0,103858@schule.nrw.de,0,"Mülheim an der Ruhr, Stadt",0,"(51.45866072776051, 6.897407586272456)",51.45866072776051,6.897407586272456
383,103860,Grundschule,Städtische Gemeinschaftsgrundschule,"Mülheim an der Ruhr, GG(Verb.)Augustastr",Augustastr. 92,45476,Mülheim an der Ruhr,230,2084554430.0,103860@schule.nrw.de,0,"Mülheim an der Ruhr, Stadt",0,"(51.4509956134075, 6.8569818970360945)",51.4509956134075,6.8569818970360945
384,103913,Grundschule,Martin-von-Tours-Schule,"Mülheim an der Ruhr, KG Martin-von-Tours",Eduardstr. 6,45468,Mülheim an der Ruhr,255,208381547.0,103913@schule.nrw.de,0,"Mülheim an der Ruhr, Stadt",0,"(51.42853781230084, 6.886566365343075)",51.42853781230084,6.886566365343075
385,103925,Grundschule,Katharinenschule,"Mülheim an der Ruhr, KG Katharinenschule",Frühlingstr. 45,45478,Mülheim an der Ruhr,295,208588480.0,103925@schule.nrw.de,0,"Mülheim an der Ruhr, Stadt",0,"(51.425314669524674, 6.835398786171406)",51.425314669524674,6.835398786171406
386,103949,Grundschule,Pestalozzi-Schule,"Mülheim an der Ruhr,GG Pestalozzi-Schule",Bülowstr. 31-33,45479,Mülheim an der Ruhr,262,2084557860.0,103949@schule.nrw.de,0,"Mülheim an der Ruhr, Stadt",0,"(51.420754741644764, 6.857752014856521)",51.420754741644764,6.857752014856521
387,103950,Grundschule,Städt. Gem. Grundschule,"Mülheim an der Ruhr, GG Zunftmeisterstr.",Zunftmeisterstr. 21-25,45468,Mülheim an der Ruhr,273,2084554700.0,103950@schule.nrw.de,0,"Mülheim an der Ruhr, Stadt",0,"(51.42853781230084, 6.886566365343075)",51.42853781230084,6.886566365343075
388,103962,Grundschule,Städt. Gem. Grundschule,"Mülheim an der Ruhr, GG Trooststr.",Trooststr. 6,45468,Mülheim an der Ruhr,196,208383398.0,103962@schule.nrw.de,0,"Mülheim an der Ruhr, Stadt",0,"(51.42853781230084, 6.886566365343075)",51.42853781230084,6.886566365343075
389,103974,Grundschule,Städt. Gem. Grundschule,"Mülheim an der Ruhr, GG Steigerweg",Steigerweg 3,45473,Mülheim an der Ruhr,312,208990067.0,103974@schule.nrw.de,0,"Mülheim an der Ruhr, Stadt",0,"(51.44402737021563, 6.898323818907213)",51.44402737021563,6.898323818907213
390,103998,Grundschule,Lierbergschule,"Mülheim an der Ruhr, GG (Verb.) Lierberg",Saarner Str. 343,45478,Mülheim an der Ruhr,376,208598691.0,103998@schule.nrw.de,0,"Mülheim an der Ruhr, Stadt",0,"(51.425314669524674, 6.835398786171406)",51.425314669524674,6.835398786171406
391,104000,Grundschule,Städt. Gem. Grundschule,"Mülheim an der Ruhr, GG Saarnberg",Saarnberg 6,45481,Mülheim an der Ruhr,185,2089978131.0,104000@schule.nrw.de,0,"Mülheim an der Ruhr, Stadt",0,"(51.39576618032136, 6.8659553463695655)",51.39576618032136,6.8659553463695655
392,104012,Grundschule,Erich Kästner-Schule,"Mülheim an der Ruhr, GG Erich Kästner",Nordstr. 85,45475,Mülheim an der Ruhr,301,2084554970.0,104012@schule.nrw.de,0,"Mülheim an der Ruhr, Stadt",0,"(51.45866072776051, 6.897407586272456)",51.45866072776051,6.897407586272456
393,104036,Grundschule,Städt. Gem. Grundschule,"Mülheim an der Ruhr, GG Heinrichstraße",August-Schmidt-Str. 30,45470,Mülheim an der Ruhr,322,208439953.0,104036@schule.nrw.de,0,"Mülheim an der Ruhr, Stadt",0,"(51.41944776825971, 6.905700729559934)",51.41944776825971,6.905700729559934
394,104048,Grundschule,Astrid Lindgren-Schule,"Mülheim an der Ruhr, GG Astrid Lindgren",Mellinghofer Str. 56,45473,Mülheim an der Ruhr,238,2084554070.0,104048@schule.nrw.de,0,"Mülheim an der Ruhr, Stadt",0,"(51.44402737021563, 6.898323818907213)",51.44402737021563,6.898323818907213
395,104073,Grundschule,Städt. Gem. Grundschule,"Mülheim an der Ruhr, GG Klostermarkt",Klostermarkt 5-9,45481,Mülheim an der Ruhr,230,208483776.0,104073@schule.nrw.de,0,"Mülheim an der Ruhr, Stadt",0,"(51.39576618032136, 6.8659553463695655)",51.39576618032136,6.8659553463695655
396,104085,Grundschule,Hölterschule,"Mülheim an der Ruhr, GG Hölterschule",Tilsiter Str. 20,45470,Mülheim an der Ruhr,371,208995326.0,104085@schule.nrw.de,0,"Mülheim an der Ruhr, Stadt",0,"(51.41944776825971, 6.905700729559934)",51.41944776825971,6.905700729559934
397,104103,Grundschule,Albert-Schweitzer-Schule,"Neuss, GG Albert-Schweitzer-Schule",Tulpenstr. 66,41466,Neuss,213,2131745891.0,104103@schule.nrw.de,0,Rhein-Kreis Neuss,1,"(51.16479792982848, 6.692131318677632)",51.16479792982848,6.692131318677632
398,104115,Grundschule,Münsterschule,"Neuss, KG Münsterschule",Hafenstr. 29,41460,Neuss,181,2131277920.0,104115@schule.nrw.de,0,Rhein-Kreis Neuss,1,"(51.200890344228526, 6.693373052098447)",51.200890344228526,6.693373052098447
399,104127,Grundschule,St. Martinus Schule,"Neuss, GG St. Martinus",Rheinfährstr. 161,41468,Neuss,170,2131930307.0,104127@schule.nrw.de,0,Rhein-Kreis Neuss,1,"(51.1734383752965, 6.74870877215454)",51.1734383752965,6.74870877215454
400,104139,Grundschule,Pestalozzischule,"Neuss, KG Pestalozzischule",Pestalozzistr. 2,41468,Neuss,316,2131737860.0,104139@schule.nrw.de,0,Rhein-Kreis Neuss,1,"(51.1734383752965, 6.74870877215454)",51.1734383752965,6.74870877215454
401,104140,Grundschule,St. Konrad Schule,"Neuss, GG St. Konrad",Löhrerstr. 7,41468,Neuss,255,2131150663.0,104140@schule.nrw.de,0,Rhein-Kreis Neuss,1,"(51.1734383752965, 6.74870877215454)",51.1734383752965,6.74870877215454
402,104164,Grundschule,Adolf Clarenbach Schule,"Neuss, EG Adolf Clarenbach Schule",Clarenbachplatz 1,41462,Neuss,240,2131569976.0,104164@schule.nrw.de,0,Rhein-Kreis Neuss,1,"(51.215570046865565, 6.66661792977868)",51.215570046865565,6.66661792977868
403,104188,Grundschule,Die Brücke,"Neuss, GG (Verb.) Die Brücke",Weißenberger Weg 151,41462,Neuss,394,213156120.0,104188@schule.nrw.de,0,Rhein-Kreis Neuss,1,"(51.215570046865565, 6.66661792977868)",51.215570046865565,6.66661792977868
404,104190,Grundschule,Friedrich-von-Bodelschwingh Schule,"Neuss, GG Friedrich-von-Bodelschwingh",Weberstr. 49,41464,Neuss,212,2131940566.0,104190@schule.nrw.de,0,Rhein-Kreis Neuss,1,"(51.190637313230596, 6.680219923893394)",51.190637313230596,6.680219923893394
405,104206,Grundschule,Martin-Luther-Schule,"Neuss, EG Martin-Luther",Sternstr. 43-45,41460,Neuss,196,2131277911.0,104206@schule.nrw.de,0,Rhein-Kreis Neuss,1,"(51.200890344228526, 6.693373052098447)",51.200890344228526,6.693373052098447
406,104220,Grundschule,Leoschule,"Neuss, KG Leo",Am Kivitzbusch 30,41462,Neuss,244,2131569986.0,104220@schule.nrw.de,0,Rhein-Kreis Neuss,1,"(51.215570046865565, 6.66661792977868)",51.215570046865565,6.66661792977868
